[{"link": "https://www.instagram.com/p/B7v6UKCIw5R", "place": {"id": "213169489", "name": "Mauritius", "slug": "mauritius", "street_address": " Indian Ocean", " zip_code": " 0000", " city_name": " Port Louis", " region_name": " ", " country_code": " MU"}, "timestamp": "2020-01-25", "gps": {"lat": "-20.1637281", "lon": "57.5045331"}}, {"link": "https://www.instagram.com/p/B7lpn2voKjH", "place": {"id": "279218661", "name": "Paris 17", "slug": "paris-17", "street_address": " ", " zip_code": " ", " city_name": " Paris", " region_name": " ", " country_code": " FR"}, "timestamp": "2020-01-21", "gps": {"lat": "48.8566969", "lon": "2.3514616"}}, {"link": "https://www.instagram.com/p/B68Vxh3I_NX", "place": {"id": "783332072047609", "name": "shangri-la mauritius", "slug": "shangri-la-mauritius", "street_address": " ", " zip_code": " ", " city_name": " ", " region_name": " ", " country_code": " "}, "timestamp": "2020-01-05", "gps": {"lat": "-20.2520801", "lon": "57.7971075"}}, {"link": "https://www.instagram.com/p/B60rzJOIebE", "place": {"id": "213169489", "name": "Mauritius", "slug": "mauritius", "street_address": " Indian Ocean", " zip_code": " 0000", " city_name": " Port Louis", " region_name": " ", " country_code": " MU"}, "timestamp": "2020-01-02", "gps": {"lat": "-20.1637281", "lon": "57.5045331"}}, {"link": "https://www.instagram.com/p/B6yLAikIskz", "place": {"id": "223394619", "name": "Mauritius", "slug": "mauritius", "street_address": " ", " zip_code": " ", " city_name": " ", " region_name": " ", " country_code": " MU"}, "timestamp": "2020-01-01", "gps": {"lat": "-20.2759451", "lon": "57.5703566"}}, {"link": "https://www.instagram.com/p/B6s7eT-oIoJ", "place": {"id": "223394619", "name": "Mauritius", "slug": "mauritius", "street_address": " ", " zip_code": " ", " city_name": " ", " region_name": " ", " country_code": " MU"}, "timestamp": "2019-12-30", "gps": {"lat": "-20.2759451", "lon": "57.5703566"}}, {"link": "https://www.instagram.com/p/B6qE1n4IAxs", "place": {"id": "215515055", "name": "Grand Baie - Mauritius", "slug": "grand-baie-mauritius", "street_address": " ", " zip_code": " 15012", " city_name": " Grand Baie", " region_name": " ", " country_code": " MU"}, "timestamp": "2019-12-29", "gps": {"lat": "-20.0130195", "lon": "57.5846264"}}, {"link": "https://www.instagram.com/p/B6gEX1vodKw", "place": {"id": "253934488", "name": "Savigny-sur-Clairis", "slug": "savigny-sur-clairis", "street_address": " ", " zip_code": " 89150", " city_name": " Savigny-sur-Clairis", " region_name": " ", " country_code": " FR"}, "timestamp": "2019-12-25", "gps": {"lat": "48.0755582", "lon": "3.0952304"}}, {"link": "https://www.instagram.com/p/B6da_qlot9Y", "place": {"id": "433680803", "name": "Namibia", "slug": "namibia", "street_address": " ", " zip_code": " ", " city_name": " ", " region_name": " ", " country_code": " NA"}, "timestamp": "2019-12-24", "gps": {"lat": "-23.2335499", "lon": "17.3231107"}}, {"link": "https://www.instagram.com/p/B6OJlVtomSI", "place": {"id": "390420734902627", "name": "Paris", "slug": "paris", "street_address": " ", " zip_code": " ", " city_name": " Paris", " region_name": " ", " country_code": " FR"}, "timestamp": "2019-12-18", "gps": {"lat": "48.8566969", "lon": "2.3514616"}}, {"link": "https://www.instagram.com/p/B6F5uEvIkpp", "place": {"id": "705761741", "name": "Oxford Circus Londres", "slug": "oxford-circus-londres", "street_address": " ", " zip_code": " ", " city_name": " ", " region_name": " ", " country_code": " "}, "timestamp": "2019-12-15", "gps": {"lat": "51.5152681", "lon": "-0.1420078"}}, {"link": "https://www.instagram.com/p/B6DdGomIntd", "place": {"id": "590268045", "name": "BCBG - Restaurant Bistro et Burger gourmet", "slug": "bcbg-restaurant-bistro-et-burger-gourmet", "street_address": " 96 Boulevard de Grenelle ", " zip_code": " 75015", " city_name": " Paris", " region_name": " ", " country_code": " FR"}, "timestamp": "2019-12-14", "gps": {"lat": "48.8566969", "lon": "2.3514616"}}, {"link": "https://www.instagram.com/p/B55iEY_oZb2", "place": {"id": "118987698216661", "name": "Winter Wonderland", "slug": "winter-wonderland-londons-hyde-park", "street_address": " ", " zip_code": " ", " city_name": " London", " region_name": " ", " country_code": " GB"}, "timestamp": "2019-12-10", "gps": {"lat": "51.5073219", "lon": "-0.1276474"}}, {"link": "https://www.instagram.com/p/B5LKvBSo_S6", "place": {"id": "214817511", "name": "My Sweet Home", "slug": "my-sweet-home", "street_address": " 137 Rua Rosa e Silva", " zip_code": " 33189", " city_name": " Nazareth", " region_name": " ", " country_code": " IL"}, "timestamp": "2019-11-22", "gps": {"lat": "32.7066301", "lon": "35.3048161"}}, {"link": "https://www.instagram.com/p/B5F_wlLoCKG", "place": {"id": "233703887387972", "name": "Parc Trocadero Tour Eiffel Paris", "slug": "parc-trocadero-tour-eiffel-paris", "street_address": " ", " zip_code": " ", " city_name": " Paris", " region_name": " ", " country_code": " FR"}, "timestamp": "2019-11-20", "gps": {"lat": "48.8566969", "lon": "2.3514616"}}, {"link": "https://www.instagram.com/p/B4r0fYBo2GB", "place": {"id": "213385402", "name": "London", "slug": "london-united-kingdom", "street_address": " ", " zip_code": " ", " city_name": " London", " region_name": " ", " country_code": " GB"}, "timestamp": "2019-11-10", "gps": {"lat": "51.5073219", "lon": "-0.1276474"}}, {"link": "https://www.instagram.com/p/B4h8vM2IvW5", "place": {"id": "597269197", "name": "Paris 16", "slug": "paris-16", "street_address": " ", " zip_code": " 75016", " city_name": " Paris", " region_name": " ", " country_code": " FR"}, "timestamp": "2019-11-06", "gps": {"lat": "48.8566969", "lon": "2.3514616"}}, {"link": "https://www.instagram.com/p/B4aGjz1I9xB", "place": {"id": "442676563", "name": "Chelsea", "slug": "chelsea-london", "street_address": " ", " zip_code": " SW3 4", " city_name": " Chelsea", " region_name": " ", " country_code": " GB"}, "timestamp": "2019-11-03", "gps": {"lat": "51.4875417", "lon": "-0.1682205"}}, {"link": "https://www.instagram.com/p/B4UiicPIoy5", "place": {"id": "442676563", "name": "Chelsea", "slug": "chelsea-london", "street_address": " ", " zip_code": " SW3 4", " city_name": " Chelsea", " region_name": " ", " country_code": " GB"}, "timestamp": "2019-11-01", "gps": {"lat": "51.4875417", "lon": "-0.1682205"}}, {"link": "https://www.instagram.com/p/B4STpg4I1jx", "place": {"id": "7856081", "name": "Notting Hill", "slug": "notting-hill", "street_address": " ", " zip_code": " W11", " city_name": " London", " region_name": " ", " country_code": " GB"}, "timestamp": "2019-10-31", "gps": {"lat": "51.5073219", "lon": "-0.1276474"}}, {"link": "https://www.instagram.com/p/B4M-9aSoevY", "place": {"id": "213385402", "name": "London", "slug": "london-united-kingdom", "street_address": " ", " zip_code": " ", " city_name": " London", " region_name": " ", " country_code": " GB"}, "timestamp": "2019-10-29", "gps": {"lat": "51.5073219", "lon": "-0.1276474"}}, {"link": "https://www.instagram.com/p/B4CzbldoIY4", "place": {"id": "110362305691344", "name": "Tel Aviv City", "slug": "tel-aviv-city", "street_address": " 111 Arlozorov St.", " zip_code": " 6209809", " city_name": " Tel Aviv", " region_name": " ", " country_code": " IL"}, "timestamp": "2019-10-25", "gps": {"lat": "32.0804808", "lon": "34.7805274"}}, {"link": "https://www.instagram.com/p/B37DkA1IxXQ", "place": {"id": "842431935", "name": "Mer Morte", "slug": "mer-morte", "street_address": " ", " zip_code": " ", " city_name": " Nev\u00e9-Zohar", " region_name": " ", " country_code": " IL"}, "timestamp": "2019-10-22", "gps": {"lat": "31.1529016", "lon": "35.365301"}}, {"link": "https://www.instagram.com/p/B34obydIvAr", "place": {"id": "237138", "name": "Hilton", "slug": "hilton-tel-aviv", "street_address": " Hayarkon 205", " zip_code": " 6340506", " city_name": " Tel Aviv", " region_name": " ", " country_code": " IL"}, "timestamp": "2019-10-21", "gps": {"lat": "32.0804808", "lon": "34.7805274"}}, {"link": "https://www.instagram.com/p/B3w_vqloy1d", "place": {"id": "213041503", "name": "Tel Aviv", "slug": "tel-aviv-israel", "street_address": " ", " zip_code": " ", " city_name": " Tel Aviv", " region_name": " ", " country_code": " IL"}, "timestamp": "2019-10-18", "gps": {"lat": "32.0804808", "lon": "34.7805274"}}, {"link": "https://www.instagram.com/p/B3r0bWNofho", "place": {"id": "217950249", "name": "Starbucks France", "slug": "starbucks-france", "street_address": " 11 Boulevard S\u00e9bastopol", " zip_code": " 75001", " city_name": " Paris", " region_name": " ", " country_code": " FR"}, "timestamp": "2019-10-16", "gps": {"lat": "48.8566969", "lon": "2.3514616"}}, {"link": "https://www.instagram.com/p/B3e8vTYIOCf", "place": {"id": "34181412", "name": "Arc de Triomphe", "slug": "arc-de-triomphe", "street_address": " 27 RUE VERNET", " zip_code": " 75008", " city_name": " Paris", " region_name": " ", " country_code": " FR"}, "timestamp": "2019-10-11", "gps": {"lat": "48.8566969", "lon": "2.3514616"}}, {"link": "https://www.instagram.com/p/B3FG5U9oAul", "place": {"id": "217903734", "name": "Le Grand Rex Paris", "slug": "le-grand-rex-paris", "street_address": " 1 boulevard Poissonni\u00e8re", " zip_code": " 75002", " city_name": " Paris", " region_name": " ", " country_code": " FR"}, "timestamp": "2019-10-01", "gps": {"lat": "48.8566969", "lon": "2.3514616"}}, {"link": "https://www.instagram.com/p/B2bxscgoJFA", "place": {"id": "10385", "name": "Le Caf\u00e9 Marly", "slug": "le-cafe-marly", "street_address": " 93 rue de Rivoli", " zip_code": " 75001", " city_name": " Paris", " region_name": " ", " country_code": " FR"}, "timestamp": "2019-09-15", "gps": {"lat": "48.8566969", "lon": "2.3514616"}}, {"link": "https://www.instagram.com/p/B2PR5McIBi8", "place": {"id": "258038165", "name": "Place de l'Op\u00e9ra", "slug": "place-de-lopera", "street_address": " Place de l'op\u00e9ra", " zip_code": " 75009", " city_name": " Paris", " region_name": " ", " country_code": " FR"}, "timestamp": "2019-09-10", "gps": {"lat": "48.8566969", "lon": "2.3514616"}}, {"link": "https://www.instagram.com/p/B2CR5J7IGSI", "place": {"id": "428324258", "name": "The Bahamas", "slug": "the-bahamas", "street_address": " ", " zip_code": " ", " city_name": " ", " region_name": " ", " country_code": " BS"}, "timestamp": "2019-09-05", "gps": {"lat": "24.7736546", "lon": "-78.0000547"}}, {"link": "https://www.instagram.com/p/B13cay2ohF5", "place": {"id": "153028668814156", "name": "My Sweet Home", "slug": "my-sweet-home", "street_address": " ", " zip_code": " ", " city_name": " Dhaka", " region_name": " ", " country_code": " BD"}, "timestamp": "2019-09-01", "gps": {"lat": "23.7593572", "lon": "90.3788136"}}, {"link": "https://www.instagram.com/p/B1vootAINWs", "place": {"id": "145131708945993", "name": "Bagatelle Paris", "slug": "bagatelle-paris", "street_address": " 42 Route de S\u00e8vres \u00e0 Neuilly ", " zip_code": " 75016", " city_name": " Paris", " region_name": " ", " country_code": " FR"}, "timestamp": "2019-08-29", "gps": {"lat": "48.8566969", "lon": "2.3514616"}}, {"link": "https://www.instagram.com/p/B1eTYSqoH0s", "place": {"id": "398330390", "name": "D\u00e9sert du Namib", "slug": "desert-du-namib", "street_address": " ", " zip_code": " ", " city_name": " ", " region_name": " ", " country_code": " "}, "timestamp": "2019-08-22", "gps": {"lat": "-24.1165286", "lon": "15.9045939"}}, {"link": "https://www.instagram.com/p/B1Y0ctNI545", "place": {"id": "578993432521279", "name": "Etosha Safari Camp", "slug": "etosha-safari-camp", "street_address": " ", " zip_code": " ", " city_name": " ", " region_name": " ", " country_code": " "}, "timestamp": "2019-08-20", "gps": {"lat": "-19.4113115", "lon": "15.9242462"}}, {"link": "https://www.instagram.com/p/B1Tz8PIo03v", "place": {"id": "433680803", "name": "Namibia", "slug": "namibia", "street_address": " ", " zip_code": " ", " city_name": " ", " region_name": " ", " country_code": " NA"}, "timestamp": "2019-08-18", "gps": {"lat": "-23.2335499", "lon": "17.3231107"}}, {"link": "https://www.instagram.com/p/B1ROtrxoYFW", "place": {"id": "961708580508137", "name": "Africa/Windhoek", "slug": "africawindhoek", "street_address": " Soligenstreet", " zip_code": " 918", " city_name": " Windhoek", " region_name": " ", " country_code": " NA"}, "timestamp": "2019-08-17", "gps": {"lat": "-22.5743922", "lon": "17.0790688"}}, {"link": "https://www.instagram.com/p/B1JqlfWIQOP", "place": {"id": "961708580508137", "name": "Africa/Windhoek", "slug": "africawindhoek", "street_address": " Soligenstreet", " zip_code": " 918", " city_name": " Windhoek", " region_name": " ", " country_code": " NA"}, "timestamp": "2019-08-14", "gps": {"lat": "-22.5743922", "lon": "17.0790688"}}, {"link": "https://www.instagram.com/p/B1JX-p2IzSq", "place": {"id": "433680803", "name": "Namibia", "slug": "namibia", "street_address": " ", " zip_code": " ", " city_name": " ", " region_name": " ", " country_code": " NA"}, "timestamp": "2019-08-14", "gps": {"lat": "-23.2335499", "lon": "17.3231107"}}, {"link": "https://www.instagram.com/p/B1GrV4BoqRG", "place": {"id": "433680803", "name": "Namibia", "slug": "namibia", "street_address": " ", " zip_code": " ", " city_name": " ", " region_name": " ", " country_code": " NA"}, "timestamp": "2019-08-13", "gps": {"lat": "-23.2335499", "lon": "17.3231107"}}, {"link": "https://www.instagram.com/p/B0rHFHupZGj", "place": {"id": "2054205531571999", "name": "Sitges", "slug": "sitges-barcelona-spain", "street_address": " ", " zip_code": " ", " city_name": " Sitges", " region_name": " ", " country_code": " ES"}, "timestamp": "2019-08-02", "gps": {"lat": "41.2366707", "lon": "1.8228136"}}, {"link": "https://www.instagram.com/p/B0jWMh1oybH", "place": {"id": "2054205531571999", "name": "Sitges", "slug": "sitges-barcelona-spain", "street_address": " ", " zip_code": " ", " city_name": " Sitges", " region_name": " ", " country_code": " ES"}, "timestamp": "2019-07-30", "gps": {"lat": "41.2366707", "lon": "1.8228136"}}, {"link": "https://www.instagram.com/p/B0dkpcJIP1B", "place": {"id": "4059691", "name": "Jungle beach", "slug": "jungle-beach", "street_address": " Plage Richelieu Est", " zip_code": " 34300", " city_name": " Le Cap D'Agde", " region_name": " ", " country_code": " FR"}, "timestamp": "2019-07-28", "gps": {"lat": "43.2845374", "lon": "3.5117752"}}, {"link": "https://www.instagram.com/p/Bz_Cs91oujE", "place": {"id": "343967238", "name": "Pathos Club  Restaurant", "slug": "pathos-club-restaurant", "street_address": " Petalotis-Koumbara", " zip_code": " 84001", " city_name": " Nio", " region_name": " ", " country_code": " GR"}, "timestamp": "2019-07-16", "gps": {"lat": "38.0729136", "lon": "21.3972828"}}, {"link": "https://www.instagram.com/p/Bzs-ZIAI4mg", "place": {"id": "546197972", "name": "A\u00e9roport d'Ajaccio-Napol\u00e9on-Bonaparte", "slug": "aeroport-dajaccio-napoleon-bonaparte", "street_address": " route de l'A\u00e9roport Campo Dell'Oro", " zip_code": " 20090", " city_name": " Ajaccio", " region_name": " ", " country_code": " FR"}, "timestamp": "2019-07-09", "gps": {"lat": "41.9263991", "lon": "8.7376029"}}, {"link": "https://www.instagram.com/p/BzoHEVVoKH6", "place": {"id": "235038111", "name": "Porticcio", "slug": "porticcio-corse-france", "street_address": " ", " zip_code": " ", " city_name": " Porticcio", " region_name": " ", " country_code": " FR"}, "timestamp": "2019-07-07", "gps": {"lat": "41.8893913", "lon": "8.8033271"}}, {"link": "https://www.instagram.com/p/BzdAwf8oQK_", "place": {"id": "308440569", "name": "FAUST", "slug": "faust", "street_address": " Port des Invalides Pont Alexandre III", " zip_code": " 75007", " city_name": " Paris", " region_name": " ", " country_code": " FR"}, "timestamp": "2019-07-03", "gps": {"lat": "48.8566969", "lon": "2.3514616"}}, {"link": "https://www.instagram.com/p/BzAhgIVo1c6", "place": {"id": "289008402", "name": "Solidays", "slug": "solidays", "street_address": " Hippodrome de Longchamp", " zip_code": " 75116", " city_name": " Paris", " region_name": " ", " country_code": " FR"}, "timestamp": "2019-06-22", "gps": {"lat": "48.8566969", "lon": "2.3514616"}}, {"link": "https://www.instagram.com/p/ByxbRiyIFdJ", "place": {"id": "6889842", "name": "Paris", "slug": "paris-france", "street_address": " ", " zip_code": " ", " city_name": " Paris", " region_name": " ", " country_code": " FR"}, "timestamp": "2019-06-16", "gps": {"lat": "48.8566969", "lon": "2.3514616"}}, {"link": "https://www.instagram.com/p/BynYPGZo1i-", "place": {"id": "322625", "name": "Cannes", "slug": "cannes", "street_address": " ", " zip_code": " 06400", " city_name": " Cannes", " region_name": " ", " country_code": " FR"}, "timestamp": "2019-06-12", "gps": {"lat": "43.5515198", "lon": "7.0134418"}}, {"link": "https://www.instagram.com/p/Bxz9I1VCb-z", "place": {"id": "1172406852811286", "name": "Cannes", "slug": "cannes-french-riviera-france", "street_address": " 159 rue de France", " zip_code": " 06150", " city_name": " Cannes", " region_name": " ", " country_code": " FR"}, "timestamp": "2019-05-23", "gps": {"lat": "43.5515198", "lon": "7.0134418"}}, {"link": "https://www.instagram.com/p/BxxPOmwDuub", "place": {"id": "279826280", "name": "Festival De Cannes", "slug": "festival-de-cannes", "street_address": " 1 Boulevard de la Croisette", " zip_code": " 06400", " city_name": " Cannes", " region_name": " ", " country_code": " FR"}, "timestamp": "2019-05-22", "gps": {"lat": "43.5515198", "lon": "7.0134418"}}, {"link": "https://www.instagram.com/p/Bxu6YlzomQk", "place": {"id": "1172406852811286", "name": "Cannes", "slug": "cannes-french-riviera-france", "street_address": " 159 rue de France", " zip_code": " 06150", " city_name": " Cannes", " region_name": " ", " country_code": " FR"}, "timestamp": "2019-05-21", "gps": {"lat": "43.5515198", "lon": "7.0134418"}}, {"link": "https://www.instagram.com/p/BxXa-J1nQ1X", "place": {"id": "600379407", "name": "Bahamas Paradise Cruise Line", "slug": "bahamas-paradise-cruise-line", "street_address": " 1 East 11th Street", " zip_code": " 33404", " city_name": " Riviera Beach", " region_name": " ", " country_code": " US"}, "timestamp": "2019-05-12", "gps": {"lat": "26.7753405", "lon": "-80.0580969"}}, {"link": "https://www.instagram.com/p/BxM9mCtn3tH", "place": {"id": "155927188536929", "name": "Nassau Bahamas", "slug": "nassau-bahamas", "street_address": " ", " zip_code": " ", " city_name": " Nassau", " region_name": " ", " country_code": " BS"}, "timestamp": "2019-05-08", "gps": {"lat": "25.0783456", "lon": "-77.3383331"}}, {"link": "https://www.instagram.com/p/Bw965THnAsD", "place": {"id": "428324258", "name": "The Bahamas", "slug": "the-bahamas", "street_address": " ", " zip_code": " ", " city_name": " ", " region_name": " ", " country_code": " BS"}, "timestamp": "2019-05-02", "gps": {"lat": "24.7736546", "lon": "-78.0000547"}}, {"link": "https://www.instagram.com/p/Bw4vDCjHkzD", "place": {"id": "229884968", "name": "Cable Beach - Nassau", "slug": "cable-beach-nassau-bahamas", "street_address": " Cable Beach", " zip_code": " ", " city_name": " Nassau", " region_name": " ", " country_code": " BS"}, "timestamp": "2019-04-30", "gps": {"lat": "25.0783456", "lon": "-77.3383331"}}, {"link": "https://www.instagram.com/p/Bw2Ll0ko-02", "place": {"id": "847781843", "name": "Bahamas Boat", "slug": "bahamas-boat", "street_address": " 1521 Alton Road", " zip_code": " 33139", " city_name": " Miami Beach", " region_name": " ", " country_code": " US"}, "timestamp": "2019-04-29", "gps": {"lat": "25.7929198", "lon": "-80.1353006"}}, {"link": "https://www.instagram.com/p/Bw15zOtHxvm", "place": {"id": "428324258", "name": "The Bahamas", "slug": "the-bahamas", "street_address": " ", " zip_code": " ", " city_name": " ", " region_name": " ", " country_code": " BS"}, "timestamp": "2019-04-29", "gps": {"lat": "24.7736546", "lon": "-78.0000547"}}, {"link": "https://www.instagram.com/p/BwuLnLyn8JG", "place": {"id": "428324258", "name": "The Bahamas", "slug": "the-bahamas", "street_address": " ", " zip_code": " ", " city_name": " ", " region_name": " ", " country_code": " BS"}, "timestamp": "2019-04-26", "gps": {"lat": "24.7736546", "lon": "-78.0000547"}}, {"link": "https://www.instagram.com/p/BwpSQv1n2fG", "place": {"id": "428324258", "name": "The Bahamas", "slug": "the-bahamas", "street_address": " ", " zip_code": " ", " city_name": " ", " region_name": " ", " country_code": " BS"}, "timestamp": "2019-04-24", "gps": {"lat": "24.7736546", "lon": "-78.0000547"}}, {"link": "https://www.instagram.com/p/BwSOQLCH4UK", "place": {"id": "214817511", "name": "My Sweet Home", "slug": "my-sweet-home", "street_address": " 137 Rua Rosa e Silva", " zip_code": " 33189", " city_name": " Nazareth", " region_name": " ", " country_code": " IL"}, "timestamp": "2019-04-15", "gps": {"lat": "32.7066301", "lon": "35.3048161"}}, {"link": "https://www.instagram.com/p/BvO72R7n2Gy", "place": {"id": "6889842", "name": "Paris", "slug": "paris-france", "street_address": " ", " zip_code": " ", " city_name": " Paris", " region_name": " ", " country_code": " FR"}, "timestamp": "2019-03-20", "gps": {"lat": "48.8566969", "lon": "2.3514616"}}, {"link": "https://www.instagram.com/p/Bu_rzPCHDRj", "place": {"id": "708524943", "name": "Marrackech", "slug": "marrackech", "street_address": " ", " zip_code": " ", " city_name": " Paris", " region_name": " ", " country_code": " FR"}, "timestamp": "2019-03-14", "gps": {"lat": "48.8566969", "lon": "2.3514616"}}, {"link": "https://www.instagram.com/p/Bu3-sgoHxxD", "place": {"id": "213252870", "name": "Marrakech", "slug": "marrakech", "street_address": " ", " zip_code": " ", " city_name": " Marrakech", " region_name": " ", " country_code": " MA"}, "timestamp": "2019-03-11", "gps": {"lat": "31.6258257", "lon": "-7.9891608"}}, {"link": "https://www.instagram.com/p/BuybuZ3HuCA", "place": {"id": "213252870", "name": "Marrakech", "slug": "marrakech", "street_address": " ", " zip_code": " ", " city_name": " Marrakech", " region_name": " ", " country_code": " MA"}, "timestamp": "2019-03-09", "gps": {"lat": "31.6258257", "lon": "-7.9891608"}}, {"link": "https://www.instagram.com/p/Bui2vN_HkPz", "place": {"id": "231040620706338", "name": "Courchevel 1850", "slug": "courchevel-1850", "street_address": " Boulevard des Batignolles", " zip_code": " 75017", " city_name": " Paris", " region_name": " ", " country_code": " FR"}, "timestamp": "2019-03-03", "gps": {"lat": "48.8566969", "lon": "2.3514616"}}, {"link": "https://www.instagram.com/p/Budy7Oznd9G", "place": {"id": "278421799549652", "name": "Courchevel", "slug": "courchevel", "street_address": " ", " zip_code": " 73120", " city_name": " Saint-Bon-Tarentaise", " region_name": " ", " country_code": " FR"}, "timestamp": "2019-03-01", "gps": {"lat": "45.38640355", "lon": "6.6457026656916405"}}, {"link": "https://www.instagram.com/p/BtTjFmvHn_R", "place": {"id": "6889842", "name": "Paris", "slug": "paris-france", "street_address": " ", " zip_code": " ", " city_name": " Paris", " region_name": " ", " country_code": " FR"}, "timestamp": "2019-01-31", "gps": {"lat": "48.8566969", "lon": "2.3514616"}}, {"link": "https://www.instagram.com/p/BtJEvwGHaH6", "place": {"id": "5158575", "name": "Vietnam", "slug": "vietnam", "street_address": " ", " zip_code": " ", " city_name": " ", " region_name": " ", " country_code": " VN"}, "timestamp": "2019-01-27", "gps": {"lat": "13.2904027", "lon": "108.4265113"}}, {"link": "https://www.instagram.com/p/BsA3QZuHUlR", "place": {"id": "388577618150092", "name": "InMyHouse", "slug": "inmyhouse", "street_address": " ", " zip_code": " 93110", " city_name": " Rosny-sous-Bois", " region_name": " ", " country_code": " FR"}, "timestamp": "2018-12-30", "gps": {"lat": "48.8716626", "lon": "2.4875193"}}, {"link": "https://www.instagram.com/p/BrvaFCFn1Ca", "place": {"id": "213117299", "name": "Rue du Faubourg Saint Honor\u00e9", "slug": "rue-du-faubourg-saint-honore", "street_address": " Rue du Faubourg St. Honor\u00e9", " zip_code": " 75001", " city_name": " Paris", " region_name": " ", " country_code": " FR"}, "timestamp": "2018-12-23", "gps": {"lat": "48.8566969", "lon": "2.3514616"}}, {"link": "https://www.instagram.com/p/BriWfQRHZny", "place": {"id": "216420804", "name": "Chez Francis Paris", "slug": "chez-francis-paris", "street_address": " 7", " zip_code": " 75008", " city_name": " Paris", " region_name": " ", " country_code": " FR"}, "timestamp": "2018-12-18", "gps": {"lat": "48.8566969", "lon": "2.3514616"}}, {"link": "https://www.instagram.com/p/BrS9XZen2Aa", "place": {"id": "154889", "name": "Avenue montaigne", "slug": "avenue-montaigne", "street_address": " Avenue Montaigne", " zip_code": " 75008", " city_name": " Paris", " region_name": " ", " country_code": " FR"}, "timestamp": "2018-12-12", "gps": {"lat": "48.8566969", "lon": "2.3514616"}}, {"link": "https://www.instagram.com/p/Bpo3H2GnvcH", "place": {"id": "640057097", "name": "Happy Halloween", "slug": "happy-halloween", "street_address": " Jetland Shopping Centre  Dunnes Stores", " zip_code": " EIRE", " city_name": " Limerick", " region_name": " ", " country_code": " IE"}, "timestamp": "2018-11-01", "gps": {"lat": "52.661252", "lon": "-8.6301239"}}, {"link": "https://www.instagram.com/p/Bpbuk2zFqLp", "place": {"id": "472441176574520", "name": "Paris 7eme", "slug": "paris-7eme", "street_address": " 284 Boulevard Saint-Germain", " zip_code": " 75007", " city_name": " Paris", " region_name": " ", " country_code": " FR"}, "timestamp": "2018-10-27", "gps": {"lat": "48.8566969", "lon": "2.3514616"}}, {"link": "https://www.instagram.com/p/BoWPZ-hlJwm", "place": {"id": "290457074", "name": "Baie d'halong - Vietnam", "slug": "baie-dhalong-vietnam", "street_address": " ", " zip_code": " ", " city_name": " Hanoi", " region_name": " ", " country_code": " VN"}, "timestamp": "2018-09-30", "gps": {"lat": "21.0340608", "lon": "105.8506783"}}, {"link": "https://www.instagram.com/p/Bn_q-kVlEPt", "place": {"id": "5158575", "name": "Vietnam", "slug": "vietnam", "street_address": " ", " zip_code": " ", " city_name": " ", " region_name": " ", " country_code": " VN"}, "timestamp": "2018-09-21", "gps": {"lat": "13.2904027", "lon": "108.4265113"}}, {"link": "https://www.instagram.com/p/BnyrwzElBTu", "place": {"id": "683630", "name": "Mus\u00e9e du Louvre", "slug": "musee-du-louvre", "street_address": " Mus\u00e9e du Louvre", " zip_code": " 75001", " city_name": " Paris", " region_name": " ", " country_code": " FR"}, "timestamp": "2018-09-16", "gps": {"lat": "48.8566969", "lon": "2.3514616"}}, {"link": "https://www.instagram.com/p/Bngqxp8FBYZ", "place": {"id": "330874944", "name": "17th arrondissement of Paris", "slug": "17th-arrondissement-of-paris", "street_address": " ", " zip_code": " 75018", " city_name": " Paris", " region_name": " ", " country_code": " FR"}, "timestamp": "2018-09-09", "gps": {"lat": "48.8566969", "lon": "2.3514616"}}, {"link": "https://www.instagram.com/p/Bm_ZLVnloYX", "place": {"id": "256322417", "name": "Domaine De Savigny Sur Clairis", "slug": "domaine-de-savigny-sur-clairis", "street_address": " ", " zip_code": " 89150", " city_name": " Savigny-sur-Clairis", " region_name": " ", " country_code": " FR"}, "timestamp": "2018-08-27", "gps": {"lat": "48.0755582", "lon": "3.0952304"}}, {"link": "https://www.instagram.com/p/Bm6PGj-Fzj8", "place": {"id": "253934488", "name": "Savigny-sur-Clairis", "slug": "savigny-sur-clairis", "street_address": " ", " zip_code": " 89150", " city_name": " Savigny-sur-Clairis", " region_name": " ", " country_code": " FR"}, "timestamp": "2018-08-25", "gps": {"lat": "48.0755582", "lon": "3.0952304"}}, {"link": "https://www.instagram.com/p/BmvWEf9FM6j", "place": {"id": "290457074", "name": "Baie d'halong - Vietnam", "slug": "baie-dhalong-vietnam", "street_address": " ", " zip_code": " ", " city_name": " Hanoi", " region_name": " ", " country_code": " VN"}, "timestamp": "2018-08-21", "gps": {"lat": "21.0340608", "lon": "105.8506783"}}, {"link": "https://www.instagram.com/p/Bmn-05jF4t7", "place": {"id": "1114437615321936", "name": "Diamond Bay Nha Trang", "slug": "diamond-bay-nha-trang", "street_address": " u0110u1ea1i lu1ed9 Nguyu1ec5n Tu1ea5t Th\u00e0nh", " zip_code": " 100000", " city_name": " Nha Trang", " region_name": " ", " country_code": " VN"}, "timestamp": "2018-08-18", "gps": {"lat": "12.2431693", "lon": "109.1898675"}}, {"link": "https://www.instagram.com/p/Bmf17ALlTNa", "place": {"id": "1114437615321936", "name": "Diamond Bay Nha Trang", "slug": "diamond-bay-nha-trang", "street_address": " u0110u1ea1i lu1ed9 Nguyu1ec5n Tu1ea5t Th\u00e0nh", " zip_code": " 100000", " city_name": " Nha Trang", " region_name": " ", " country_code": " VN"}, "timestamp": "2018-08-15", "gps": {"lat": "12.2431693", "lon": "109.1898675"}}, {"link": "https://www.instagram.com/p/Bmal3XJlHla", "place": {"id": "213735962", "name": "Nha Trang", "slug": "nha-trang", "street_address": " ", " zip_code": " 625080", " city_name": " Nha Trang", " region_name": " ", " country_code": " VN"}, "timestamp": "2018-08-13", "gps": {"lat": "12.2431693", "lon": "109.1898675"}}, {"link": "https://www.instagram.com/p/BmTaKs8FfZc", "place": {"id": "297388110", "name": "Nhu Tien Beach - Diamond Bay Condotel  Resort", "slug": "nhu-tien-beach-diamond-bay-condotel-resort", "street_address": " u0110u1ea1i Lu1ed9 Nguyu1ec5n Tu1ea5t Th\u00e0nh - Phu01b0u1edbc Hu1ea1 - Phu01b0u1edbc u0110u1ed3ng", " zip_code": " 640000", " city_name": " Nha Trang", " region_name": " ", " country_code": " VN"}, "timestamp": "2018-08-10", "gps": {"lat": "12.2431693", "lon": "109.1898675"}}, {"link": "https://www.instagram.com/p/BmAze_hFJ3W", "place": {"id": "1073482729396403", "name": "u179fu17c0u1798 u179au17b6u1794 Siem Reap", "slug": "siem-reap-cambodia", "street_address": " u179fu17d2u179cu17b6u1799u178au1784u17d2u1782u17c6", " zip_code": " ", " city_name": " Siem Reap", " region_name": " ", " country_code": " KH"}, "timestamp": "2018-08-03", "gps": {"lat": "13.3617562", "lon": "103.8590321"}}, {"link": "https://www.instagram.com/p/Blu4Yg2FaO1", "place": {"id": "1274242806027972", "name": "Cape D'Agde", "slug": "cape-dagde", "street_address": " Route de Guiraudette", " zip_code": " 34300", " city_name": " Agde", " region_name": " ", " country_code": " FR"}, "timestamp": "2018-07-27", "gps": {"lat": "43.3134787", "lon": "3.4771629"}}, {"link": "https://www.instagram.com/p/BllS70El0ut", "place": {"id": "1740254132699360", "name": "Bora Beach", "slug": "bora-beach", "street_address": " Ile des Loisirs", " zip_code": " 34300", " city_name": " Le Cap D'Agde", " region_name": " ", " country_code": " FR"}, "timestamp": "2018-07-23", "gps": {"lat": "43.2845374", "lon": "3.5117752"}}, {"link": "https://www.instagram.com/p/BlTIL3AFIkK", "place": {"id": "212983635", "name": "San Diego", "slug": "san-diego-california", "street_address": " ", " zip_code": " ", " city_name": " San Diego", " region_name": " ", " country_code": " US"}, "timestamp": "2018-07-16", "gps": {"lat": "32.7174209", "lon": "-117.1627714"}}, {"link": "https://www.instagram.com/p/BlLL6AklccT", "place": {"id": "212983635", "name": "San Diego", "slug": "san-diego-california", "street_address": " ", " zip_code": " ", " city_name": " San Diego", " region_name": " ", " country_code": " US"}, "timestamp": "2018-07-13", "gps": {"lat": "32.7174209", "lon": "-117.1627714"}}, {"link": "https://www.instagram.com/p/BlDbvyql3ep", "place": {"id": "212983635", "name": "San Diego", "slug": "san-diego-california", "street_address": " ", " zip_code": " ", " city_name": " San Diego", " region_name": " ", " country_code": " US"}, "timestamp": "2018-07-10", "gps": {"lat": "32.7174209", "lon": "-117.1627714"}}, {"link": "https://www.instagram.com/p/BkZ4ORbHs_V", "place": {"id": "289008402", "name": "Solidays", "slug": "solidays", "street_address": " Hippodrome de Longchamp", " zip_code": " 75116", " city_name": " Paris", " region_name": " ", " country_code": " FR"}, "timestamp": "2018-06-24", "gps": {"lat": "48.8566969", "lon": "2.3514616"}}, {"link": "https://www.instagram.com/p/BkXPvAen57Q", "place": {"id": "289008402", "name": "Solidays", "slug": "solidays", "street_address": " Hippodrome de Longchamp", " zip_code": " 75116", " city_name": " Paris", " region_name": " ", " country_code": " FR"}, "timestamp": "2018-06-23", "gps": {"lat": "48.8566969", "lon": "2.3514616"}}, {"link": "https://www.instagram.com/p/BkGEDzznWbe", "place": {"id": "256322417", "name": "Domaine De Savigny Sur Clairis", "slug": "domaine-de-savigny-sur-clairis", "street_address": " ", " zip_code": " 89150", " city_name": " Savigny-sur-Clairis", " region_name": " ", " country_code": " FR"}, "timestamp": "2018-06-16", "gps": {"lat": "48.0755582", "lon": "3.0952304"}}, {"link": "https://www.instagram.com/p/BjkLqWRDJoS", "place": {"id": "6889842", "name": "Paris", "slug": "paris-france", "street_address": " ", " zip_code": " ", " city_name": " Paris", " region_name": " ", " country_code": " FR"}, "timestamp": "2018-06-03", "gps": {"lat": "48.8566969", "lon": "2.3514616"}}, {"link": "https://www.instagram.com/p/BjKlBoeD5pe", "place": {"id": "516114652", "name": "Parc floral de Paris", "slug": "parc-floral-de-paris", "street_address": " Avenue des Minimes", " zip_code": " 75012", " city_name": " Paris", " region_name": " ", " country_code": " FR"}, "timestamp": "2018-05-24", "gps": {"lat": "48.8566969", "lon": "2.3514616"}}, {"link": "https://www.instagram.com/p/Bi1-35VjMJp", "place": {"id": "239486", "name": "Jardin du Luxembourg", "slug": "jardin-du-luxembourg", "street_address": " 6e arrondissement", " zip_code": " 75003", " city_name": " Paris", " region_name": " ", " country_code": " FR"}, "timestamp": "2018-05-16", "gps": {"lat": "48.8566969", "lon": "2.3514616"}}, {"link": "https://www.instagram.com/p/BiZ2NDulMmH", "place": {"id": "3015071", "name": "Le Manoir de Paris", "slug": "le-manoir-de-paris", "street_address": " 18 rue de Paradis", " zip_code": " 75010", " city_name": " Paris", " region_name": " ", " country_code": " FR"}, "timestamp": "2018-05-05", "gps": {"lat": "48.8566969", "lon": "2.3514616"}}, {"link": "https://www.instagram.com/p/BiXL1TbFA1v", "place": {"id": "6889842", "name": "Paris", "slug": "paris-france", "street_address": " ", " zip_code": " ", " city_name": " Paris", " region_name": " ", " country_code": " FR"}, "timestamp": "2018-05-04", "gps": {"lat": "48.8566969", "lon": "2.3514616"}}, {"link": "https://www.instagram.com/p/BhyX9v_FAF6", "place": {"id": "6889842", "name": "Paris", "slug": "paris-france", "street_address": " ", " zip_code": " ", " city_name": " Paris", " region_name": " ", " country_code": " FR"}, "timestamp": "2018-04-20", "gps": {"lat": "48.8566969", "lon": "2.3514616"}}, {"link": "https://www.instagram.com/p/Bhwia1_lU-a", "place": {"id": "1504048", "name": "Le L\u00e9zard Caf\u00e9", "slug": "le-lezard-cafe", "street_address": " 32 rue Etienne Marcel", " zip_code": " 75002", " city_name": " Paris", " region_name": " ", " country_code": " FR"}, "timestamp": "2018-04-19", "gps": {"lat": "48.8566969", "lon": "2.3514616"}}, {"link": "https://www.instagram.com/p/BhuEApUlm8n", "place": {"id": "927009177", "name": "Sacr\u00e9-Cu0153ur", "slug": "sacre-cur-paris", "street_address": " ", " zip_code": " ", " city_name": " Dubai", " region_name": " ", " country_code": " AE"}, "timestamp": "2018-04-18", "gps": {"lat": "25.0657", "lon": "55.1713"}}, {"link": "https://www.instagram.com/p/BhgxbrdFTYT", "place": {"id": "225351404", "name": "Vincennes", "slug": "vincennes-france", "street_address": " ", " zip_code": " ", " city_name": " Vincennes", " region_name": " ", " country_code": " FR"}, "timestamp": "2018-04-13", "gps": {"lat": "48.8474508", "lon": "2.4396714"}}, {"link": "https://www.instagram.com/p/BhBmiCZFCg2", "place": {"id": "799591570", "name": "Festival De Cannes", "slug": "festival-de-cannes", "street_address": " ", " zip_code": " ", " city_name": " Cannes", " region_name": " ", " country_code": " FR"}, "timestamp": "2018-04-01", "gps": {"lat": "43.5515198", "lon": "7.0134418"}}, {"link": "https://www.instagram.com/p/Bf87KzMlotR", "place": {"id": "6889842", "name": "Paris", "slug": "paris-france", "street_address": " ", " zip_code": " ", " city_name": " Paris", " region_name": " ", " country_code": " FR"}, "timestamp": "2018-03-05", "gps": {"lat": "48.8566969", "lon": "2.3514616"}}, {"link": "https://www.instagram.com/p/Be5vlljlWiF", "place": {"id": "6889842", "name": "Paris", "slug": "paris-france", "street_address": " ", " zip_code": " ", " city_name": " Paris", " region_name": " ", " country_code": " FR"}, "timestamp": "2018-02-07", "gps": {"lat": "48.8566969", "lon": "2.3514616"}}, {"link": "https://www.instagram.com/p/Be3KzAblXxH", "place": {"id": "358522559", "name": "France T\u00e9l\u00e9visions", "slug": "france-televisions", "street_address": " ", " zip_code": " 75015", " city_name": " Paris", " region_name": " ", " country_code": " FR"}, "timestamp": "2018-02-06", "gps": {"lat": "48.8566969", "lon": "2.3514616"}}, {"link": "https://www.instagram.com/p/Bd7sEYDlIgO", "place": {"id": "215714682", "name": "Chamonix-Mont-Blanc", "slug": "chamonix-mont-blanc", "street_address": " 85 place du triangle de l'amiti\u00e9", " zip_code": " 74400", " city_name": " Chamonix", " region_name": " ", " country_code": " FR"}, "timestamp": "2018-01-14", "gps": {"lat": "45.9246705", "lon": "6.8727506"}}, {"link": "https://www.instagram.com/p/Bd2x9SKFS4r", "place": {"id": "385731730", "name": "Chamonix", "slug": "chamonix-france", "street_address": " ", " zip_code": " ", " city_name": " Chamonix", " region_name": " ", " country_code": " FR"}, "timestamp": "2018-01-12", "gps": {"lat": "45.9246705", "lon": "6.8727506"}}, {"link": "https://www.instagram.com/p/BdGjHGjFa9h", "place": {"id": "6889842", "name": "Paris", "slug": "paris-france", "street_address": " ", " zip_code": " ", " city_name": " Paris", " region_name": " ", " country_code": " FR"}, "timestamp": "2017-12-24", "gps": {"lat": "48.8566969", "lon": "2.3514616"}}, {"link": "https://www.instagram.com/p/BbzN_1hF3jq", "place": {"id": "6889842", "name": "Paris", "slug": "paris-france", "street_address": " ", " zip_code": " ", " city_name": " Paris", " region_name": " ", " country_code": " FR"}, "timestamp": "2017-11-22", "gps": {"lat": "48.8566969", "lon": "2.3514616"}}, {"link": "https://www.instagram.com/p/BbcXjbWlB_O", "place": {"id": "6889842", "name": "Paris", "slug": "paris-france", "street_address": " ", " zip_code": " ", " city_name": " Paris", " region_name": " ", " country_code": " FR"}, "timestamp": "2017-11-13", "gps": {"lat": "48.8566969", "lon": "2.3514616"}}, {"link": "https://www.instagram.com/p/BbM4V71lUWs", "place": {"id": "6889842", "name": "Paris", "slug": "paris-france", "street_address": " ", " zip_code": " ", " city_name": " Paris", " region_name": " ", " country_code": " FR"}, "timestamp": "2017-11-07", "gps": {"lat": "48.8566969", "lon": "2.3514616"}}, {"link": "https://www.instagram.com/p/Baw55TsljIs", "place": {"id": "256322417", "name": "Domaine De Savigny Sur Clairis", "slug": "domaine-de-savigny-sur-clairis", "street_address": " ", " zip_code": " 89150", " city_name": " Savigny-sur-Clairis", " region_name": " ", " country_code": " FR"}, "timestamp": "2017-10-27", "gps": {"lat": "48.0755582", "lon": "3.0952304"}}, {"link": "https://www.instagram.com/p/BZjbX5QFfAw", "place": {"id": "6889842", "name": "Paris", "slug": "paris-france", "street_address": " ", " zip_code": " ", " city_name": " Paris", " region_name": " ", " country_code": " FR"}, "timestamp": "2017-09-27", "gps": {"lat": "48.8566969", "lon": "2.3514616"}}, {"link": "https://www.instagram.com/p/BZGAbOelaKa", "place": {"id": "225351404", "name": "Vincennes", "slug": "vincennes-france", "street_address": " ", " zip_code": " ", " city_name": " Vincennes", " region_name": " ", " country_code": " FR"}, "timestamp": "2017-09-16", "gps": {"lat": "48.8474508", "lon": "2.4396714"}}, {"link": "https://www.instagram.com/p/BYjAywxlNZe", "place": {"id": "6889842", "name": "Paris", "slug": "paris-france", "street_address": " ", " zip_code": " ", " city_name": " Paris", " region_name": " ", " country_code": " FR"}, "timestamp": "2017-09-02", "gps": {"lat": "48.8566969", "lon": "2.3514616"}}, {"link": "https://www.instagram.com/p/BYi1geKF7cI", "place": {"id": "213114014", "name": "Rue de Rivoli", "slug": "rue-de-rivoli", "street_address": " ", " zip_code": " ", " city_name": " Paris", " region_name": " ", " country_code": " FR"}, "timestamp": "2017-09-02", "gps": {"lat": "48.8566969", "lon": "2.3514616"}}, {"link": "https://www.instagram.com/p/BXkojb0lcdk", "place": {"id": "218633668", "name": "Dambulla", "slug": "dambulla-sri-lanka", "street_address": " ", " zip_code": " ", " city_name": " Dambulla", " region_name": " ", " country_code": " LK"}, "timestamp": "2017-08-09", "gps": {"lat": "7.8742287", "lon": "80.6511402"}}, {"link": "https://www.instagram.com/p/BXVzVJYFBTb", "place": {"id": "243488410", "name": "Sri Lanka", "slug": "sri-lanka", "street_address": " ", " zip_code": " ", " city_name": " ", " region_name": " ", " country_code": " LK"}, "timestamp": "2017-08-03", "gps": {"lat": "7.5554942", "lon": "80.7137847"}}, {"link": "https://www.instagram.com/p/BWQWtvfl7_r", "place": {"id": "243916039", "name": "Malta", "slug": "malta", "street_address": " ", " zip_code": " ", " city_name": " ", " region_name": " ", " country_code": " MT"}, "timestamp": "2017-07-07", "gps": {"lat": "35.8885993", "lon": "14.4476911"}}, {"link": "https://www.instagram.com/p/BVMau5zBxOw", "place": {"id": "256322417", "name": "Domaine De Savigny Sur Clairis", "slug": "domaine-de-savigny-sur-clairis", "street_address": " ", " zip_code": " 89150", " city_name": " Savigny-sur-Clairis", " region_name": " ", " country_code": " FR"}, "timestamp": "2017-06-11", "gps": {"lat": "48.0755582", "lon": "3.0952304"}}, {"link": "https://www.instagram.com/p/BUw4bdth3oS", "place": {"id": "225351404", "name": "Vincennes", "slug": "vincennes-france", "street_address": " ", " zip_code": " ", " city_name": " Vincennes", " region_name": " ", " country_code": " FR"}, "timestamp": "2017-05-31", "gps": {"lat": "48.8474508", "lon": "2.4396714"}}, {"link": "https://www.instagram.com/p/BTb1A9eB7-9", "place": {"id": "45824540", "name": "Neuilly-sur-Seine", "slug": "neuilly-sur-seine-france", "street_address": " ", " zip_code": " ", " city_name": " Neuilly-sur-Seine", " region_name": " ", " country_code": " FR"}, "timestamp": "2017-04-28", "gps": {"lat": "48.884683", "lon": "2.2695658"}}, {"link": "https://www.instagram.com/p/BRgJCdxBdV2", "place": {"id": "470113951", "name": "Paris 16eme", "slug": "paris-16eme", "street_address": " ", " zip_code": " ", " city_name": " Paris", " region_name": " ", " country_code": " FR"}, "timestamp": "2017-03-11", "gps": {"lat": "48.8566969", "lon": "2.3514616"}}, {"link": "https://www.instagram.com/p/BRQny9GB-AB", "place": {"id": "1180450205374539", "name": "Canada Toronto", "slug": "canada-toronto", "street_address": " ", " zip_code": " ", " city_name": " Toronto", " region_name": " ", " country_code": " CA"}, "timestamp": "2017-03-05", "gps": {"lat": "43.653963", "lon": "-79.387207"}}, {"link": "https://www.instagram.com/p/BQIxrgUgMQm", "place": {"id": "225351404", "name": "Vincennes", "slug": "vincennes-france", "street_address": " ", " zip_code": " ", " city_name": " Vincennes", " region_name": " ", " country_code": " FR"}, "timestamp": "2017-02-05", "gps": {"lat": "48.8474508", "lon": "2.4396714"}}, {"link": "https://www.instagram.com/p/BNAlP5Bh0zL", "place": {"id": "236615264", "name": "Paris", "slug": "paris-16eme", "street_address": " ", " zip_code": " 75016", " city_name": " Paris", " region_name": " ", " country_code": " FR"}, "timestamp": "2016-11-19", "gps": {"lat": "48.8566969", "lon": "2.3514616"}}, {"link": "https://www.instagram.com/p/BLD_74VB-sG", "place": {"id": "6889842", "name": "Paris", "slug": "paris-france", "street_address": " ", " zip_code": " ", " city_name": " Paris", " region_name": " ", " country_code": " FR"}, "timestamp": "2016-10-02", "gps": {"lat": "48.8566969", "lon": "2.3514616"}}, {"link": "https://www.instagram.com/p/BI0jUrghYdr", "place": {"id": "1023179489", "name": "Jericoacoara O Para\u00edso \u00c9 Aqui", "slug": "jericoacoara-o-paraiso-e-aqui", "street_address": " ", " zip_code": " ", " city_name": " Jericoacoara", " region_name": " ", " country_code": " BR"}, "timestamp": "2016-08-07", "gps": {"lat": "-2.8986278", "lon": "-40.4506081"}}, {"link": "https://www.instagram.com/p/BIyBYAdhpFQ", "place": {"id": "1023179489", "name": "Jericoacoara O Para\u00edso \u00c9 Aqui", "slug": "jericoacoara-o-paraiso-e-aqui", "street_address": " ", " zip_code": " ", " city_name": " Jericoacoara", " region_name": " ", " country_code": " BR"}, "timestamp": "2016-08-06", "gps": {"lat": "-2.8986278", "lon": "-40.4506081"}}]
