[{"link": "https://www.instagram.com/p/B7qb8W1CEXx", "place": {"id": "214246727", "name": "Nantes", "slug": "nantes-france", "street_address": " ", " zip_code": " ", " city_name": " Nantes", " region_name": " ", " country_code": " FR"}, "timestamp": "2020-01-23", "gps": {"lat": "47.2186371", "lon": "-1.5541362"}}, {"link": "https://www.instagram.com/p/B7p8WaZicyY", "place": {"id": "297581007", "name": "France", "slug": "france", "street_address": " ", " zip_code": " ", " city_name": " ", " region_name": " ", " country_code": " FR"}, "timestamp": "2020-01-23", "gps": {"lat": "46.603354", "lon": "1.8883335"}}, {"link": "https://www.instagram.com/p/B7dvAXwiOYz", "place": {"id": "283024838", "name": "Mormant", "slug": "mormant-france", "street_address": " ", " zip_code": " ", " city_name": " Mormant", " region_name": " ", " country_code": " FR"}, "timestamp": "2020-01-18", "gps": {"lat": "48.6066366", "lon": "2.8904431"}}, {"link": "https://www.instagram.com/p/B7dcVNCCrzI", "place": {"id": "268492609", "name": "Nangis", "slug": "nangis", "street_address": " ", " zip_code": " 77370", " city_name": " Nangis", " region_name": " ", " country_code": " FR"}, "timestamp": "2020-01-18", "gps": {"lat": "48.5549685", "lon": "3.0134672"}}, {"link": "https://www.instagram.com/p/B7dWuIsCyv2", "place": {"id": "268492609", "name": "Nangis", "slug": "nangis", "street_address": " ", " zip_code": " 77370", " city_name": " Nangis", " region_name": " ", " country_code": " FR"}, "timestamp": "2020-01-18", "gps": {"lat": "48.5549685", "lon": "3.0134672"}}, {"link": "https://www.instagram.com/p/B7dPCeUoYxC", "place": {"id": "293828904343650", "name": "Ecurie et Elevage de Courtenain", "slug": "ecurie-et-elevage-de-courtenain", "street_address": " Route de Fontainebleau", " zip_code": " 77370", " city_name": " Nangis", " region_name": " ", " country_code": " FR"}, "timestamp": "2020-01-18", "gps": {"lat": "48.5549685", "lon": "3.0134672"}}, {"link": "https://www.instagram.com/p/B7dIntPIQoV", "place": {"id": "293828904343650", "name": "Ecurie et Elevage de Courtenain", "slug": "ecurie-et-elevage-de-courtenain", "street_address": " Route de Fontainebleau", " zip_code": " 77370", " city_name": " Nangis", " region_name": " ", " country_code": " FR"}, "timestamp": "2020-01-18", "gps": {"lat": "48.5549685", "lon": "3.0134672"}}, {"link": "https://www.instagram.com/p/B7bY6ukixk7", "place": {"id": "297581007", "name": "France", "slug": "france", "street_address": " ", " zip_code": " ", " city_name": " ", " region_name": " ", " country_code": " FR"}, "timestamp": "2020-01-17", "gps": {"lat": "46.603354", "lon": "1.8883335"}}, {"link": "https://www.instagram.com/p/B7OpPJlC9G_", "place": {"id": "1084340", "name": "Maison de la Chimie", "slug": "maison-de-la-chimie", "street_address": " 28", " zip_code": " 75007", " city_name": " Paris", " region_name": " ", " country_code": " FR"}, "timestamp": "2020-01-12", "gps": {"lat": "48.8566969", "lon": "2.3514616"}}, {"link": "https://www.instagram.com/p/B7KBjiYikGk", "place": {"id": "7655487", "name": "Montigny-en-Gohelle", "slug": "montigny-en-gohelle", "street_address": " ", " zip_code": " 62640", " city_name": " Montigny-en-Gohelle", " region_name": " ", " country_code": " FR"}, "timestamp": "2020-01-10", "gps": {"lat": "50.4269", "lon": "2.92988"}}, {"link": "https://www.instagram.com/p/B6czoSiCvAJ", "place": {"id": "297581007", "name": "France", "slug": "france", "street_address": " ", " zip_code": " ", " city_name": " ", " region_name": " ", " country_code": " FR"}, "timestamp": "2019-12-24", "gps": {"lat": "46.603354", "lon": "1.8883335"}}, {"link": "https://www.instagram.com/p/B6bdINAi3NE", "place": {"id": "417963697", "name": "H\u00e9nin-Beaumont", "slug": "henin-beaumont-france", "street_address": " ", " zip_code": " ", " city_name": " H\u00e9nin-Beaumont", " region_name": " ", " country_code": " FR"}, "timestamp": "2019-12-23", "gps": {"lat": "50.4194308", "lon": "2.9469926"}}, {"link": "https://www.instagram.com/p/B5-Hu-WizwB", "place": {"id": "417963697", "name": "H\u00e9nin-Beaumont", "slug": "henin-beaumont-france", "street_address": " ", " zip_code": " ", " city_name": " H\u00e9nin-Beaumont", " region_name": " ", " country_code": " FR"}, "timestamp": "2019-12-12", "gps": {"lat": "50.4194308", "lon": "2.9469926"}}, {"link": "https://www.instagram.com/p/B5NXd07iIf5", "place": {"id": "274734374", "name": "Oignies", "slug": "oignies", "street_address": " ", " zip_code": " 62590", " city_name": " Oignies", " region_name": " ", " country_code": " FR"}, "timestamp": "2019-11-23", "gps": {"lat": "50.4643", "lon": "2.99387"}}, {"link": "https://www.instagram.com/p/B4zuTJNiJ_d", "place": {"id": "325719", "name": "Bataclan", "slug": "bataclan", "street_address": " 50 Boulevard Voltaire 75011 Paris", " zip_code": " 75011", " city_name": " Paris", " region_name": " ", " country_code": " FR"}, "timestamp": "2019-11-13", "gps": {"lat": "48.8566969", "lon": "2.3514616"}}, {"link": "https://www.instagram.com/p/B4vJqVKoK88", "place": {"id": "417963697", "name": "H\u00e9nin-Beaumont", "slug": "henin-beaumont-france", "street_address": " ", " zip_code": " ", " city_name": " H\u00e9nin-Beaumont", " region_name": " ", " country_code": " FR"}, "timestamp": "2019-11-11", "gps": {"lat": "50.4194308", "lon": "2.9469926"}}, {"link": "https://www.instagram.com/p/B4uW7etCoeR", "place": {"id": "263281551", "name": "Carvin", "slug": "carvin-france", "street_address": " ", " zip_code": " ", " city_name": " Carvin", " region_name": " ", " country_code": " FR"}, "timestamp": "2019-11-11", "gps": {"lat": "50.4934145", "lon": "2.9577519"}}, {"link": "https://www.instagram.com/p/B4pS3FqCre2", "place": {"id": "468395387", "name": "Salon Made In France Porte De Versailles", "slug": "salon-made-in-france-porte-de-versailles", "street_address": " ", " zip_code": " 75015", " city_name": " Paris", " region_name": " ", " country_code": " FR"}, "timestamp": "2019-11-09", "gps": {"lat": "48.8566969", "lon": "2.3514616"}}, {"link": "https://www.instagram.com/p/B4H-Ljpiz7_", "place": {"id": "417963697", "name": "H\u00e9nin-Beaumont", "slug": "henin-beaumont-france", "street_address": " ", " zip_code": " ", " city_name": " H\u00e9nin-Beaumont", " region_name": " ", " country_code": " FR"}, "timestamp": "2019-10-27", "gps": {"lat": "50.4194308", "lon": "2.9469926"}}, {"link": "https://www.instagram.com/p/B37q1VQihqM", "place": {"id": "297581007", "name": "France", "slug": "france", "street_address": " ", " zip_code": " ", " city_name": " ", " region_name": " ", " country_code": " FR"}, "timestamp": "2019-10-22", "gps": {"lat": "46.603354", "lon": "1.8883335"}}, {"link": "https://www.instagram.com/p/B3uTw4riCA7", "place": {"id": "75342", "name": "Europe 1", "slug": "europe-1", "street_address": " Rue des C\u00e9vennes", " zip_code": " 75015", " city_name": " Paris", " region_name": " ", " country_code": " FR"}, "timestamp": "2019-10-17", "gps": {"lat": "48.8566969", "lon": "2.3514616"}}, {"link": "https://www.instagram.com/p/B3poTQpCHdZ", "place": {"id": "6889842", "name": "Paris", "slug": "paris-france", "street_address": " ", " zip_code": " ", " city_name": " Paris", " region_name": " ", " country_code": " FR"}, "timestamp": "2019-10-15", "gps": {"lat": "48.8566969", "lon": "2.3514616"}}, {"link": "https://www.instagram.com/p/B28-5iniRaK", "place": {"id": "417963697", "name": "H\u00e9nin-Beaumont", "slug": "henin-beaumont-france", "street_address": " ", " zip_code": " ", " city_name": " H\u00e9nin-Beaumont", " region_name": " ", " country_code": " FR"}, "timestamp": "2019-09-28", "gps": {"lat": "50.4194308", "lon": "2.9469926"}}, {"link": "https://www.instagram.com/p/B2ewks4iGxD", "place": {"id": "256485025", "name": "Fr\u00e9jus", "slug": "frejus", "street_address": " ", " zip_code": " 83600", " city_name": " Fr\u00e9jus", " region_name": " ", " country_code": " FR"}, "timestamp": "2019-09-16", "gps": {"lat": "43.4330308", "lon": "6.7360182"}}, {"link": "https://www.instagram.com/p/B2Jz_npCeOc", "place": {"id": "417963697", "name": "H\u00e9nin-Beaumont", "slug": "henin-beaumont-france", "street_address": " ", " zip_code": " ", " city_name": " H\u00e9nin-Beaumont", " region_name": " ", " country_code": " FR"}, "timestamp": "2019-09-08", "gps": {"lat": "50.4194308", "lon": "2.9469926"}}, {"link": "https://www.instagram.com/p/B16xYgcitEw", "place": {"id": "417963697", "name": "H\u00e9nin-Beaumont", "slug": "henin-beaumont-france", "street_address": " ", " zip_code": " ", " city_name": " H\u00e9nin-Beaumont", " region_name": " ", " country_code": " FR"}, "timestamp": "2019-09-02", "gps": {"lat": "50.4194308", "lon": "2.9469926"}}, {"link": "https://www.instagram.com/p/B16bZPHi4TM", "place": {"id": "417963697", "name": "H\u00e9nin-Beaumont", "slug": "henin-beaumont-france", "street_address": " ", " zip_code": " ", " city_name": " H\u00e9nin-Beaumont", " region_name": " ", " country_code": " FR"}, "timestamp": "2019-09-02", "gps": {"lat": "50.4194308", "lon": "2.9469926"}}, {"link": "https://www.instagram.com/p/B0Bn_XiiNf7", "place": {"id": "395643", "name": "Assembl\u00e9e nationale", "slug": "assemblee-nationale", "street_address": " 126", " zip_code": " 75355", " city_name": " Paris", " region_name": " ", " country_code": " FR"}, "timestamp": "2019-07-17", "gps": {"lat": "48.8566969", "lon": "2.3514616"}}, {"link": "https://www.instagram.com/p/Bz55lTaCtDC", "place": {"id": "417963697", "name": "H\u00e9nin-Beaumont", "slug": "henin-beaumont-france", "street_address": " ", " zip_code": " ", " city_name": " H\u00e9nin-Beaumont", " region_name": " ", " country_code": " FR"}, "timestamp": "2019-07-14", "gps": {"lat": "50.4194308", "lon": "2.9469926"}}, {"link": "https://www.instagram.com/p/Bz5eTgiCMve", "place": {"id": "417963697", "name": "H\u00e9nin-Beaumont", "slug": "henin-beaumont-france", "street_address": " ", " zip_code": " ", " city_name": " H\u00e9nin-Beaumont", " region_name": " ", " country_code": " FR"}, "timestamp": "2019-07-14", "gps": {"lat": "50.4194308", "lon": "2.9469926"}}, {"link": "https://www.instagram.com/p/Bz5ZgRfCINr", "place": {"id": "417963697", "name": "H\u00e9nin-Beaumont", "slug": "henin-beaumont-france", "street_address": " ", " zip_code": " ", " city_name": " H\u00e9nin-Beaumont", " region_name": " ", " country_code": " FR"}, "timestamp": "2019-07-14", "gps": {"lat": "50.4194308", "lon": "2.9469926"}}, {"link": "https://www.instagram.com/p/By3JU2-iPVN", "place": {"id": "468113582", "name": "Paris A\u00e9roport - Le Bourget (LBG)", "slug": "paris-aeroport-le-bourget-lbg", "street_address": " 180 Esplanade de l'Air et de l'Espace", " zip_code": " 93350", " city_name": " Le Bourget", " region_name": " ", " country_code": " FR"}, "timestamp": "2019-06-18", "gps": {"lat": "48.9351403", "lon": "2.4258354"}}, {"link": "https://www.instagram.com/p/ByxnK6DC3Po", "place": {"id": "213052550", "name": "La Rochelle", "slug": "la-rochelle-france", "street_address": " ", " zip_code": " ", " city_name": " La Rochelle", " region_name": " ", " country_code": " FR"}, "timestamp": "2019-06-16", "gps": {"lat": "46.1591126", "lon": "-1.1520434"}}, {"link": "https://www.instagram.com/p/Byu5HjXietD", "place": {"id": "417963697", "name": "H\u00e9nin-Beaumont", "slug": "henin-beaumont-france", "street_address": " ", " zip_code": " ", " city_name": " H\u00e9nin-Beaumont", " region_name": " ", " country_code": " FR"}, "timestamp": "2019-06-15", "gps": {"lat": "50.4194308", "lon": "2.9469926"}}, {"link": "https://www.instagram.com/p/ByupTqSi1wg", "place": {"id": "369399596", "name": "Nord-Pas-de-Calais", "slug": "nord-pas-de-calais-france", "street_address": " ", " zip_code": " ", " city_name": " ", " region_name": " Nord-Pas-de-Calais", " country_code": " FR"}, "timestamp": "2019-06-15", "gps": {"lat": "50.52896905", "lon": "2.4545149091687457"}}, {"link": "https://www.instagram.com/p/ByaM4OQlFkH", "place": {"id": "255197346", "name": "BFMTV", "slug": "bfmtv", "street_address": " 12 rue Oradour-sur-Glane", " zip_code": " 92130", " city_name": " Paris", " region_name": " ", " country_code": " FR"}, "timestamp": "2019-06-07", "gps": {"lat": "48.8566969", "lon": "2.3514616"}}, {"link": "https://www.instagram.com/p/Bx8Haani2pN", "place": {"id": "6889842", "name": "Paris", "slug": "paris-france", "street_address": " ", " zip_code": " ", " city_name": " Paris", " region_name": " ", " country_code": " FR"}, "timestamp": "2019-05-26", "gps": {"lat": "48.8566969", "lon": "2.3514616"}}, {"link": "https://www.instagram.com/p/Bx67idRC_I2", "place": {"id": "417963697", "name": "H\u00e9nin-Beaumont", "slug": "henin-beaumont-france", "street_address": " ", " zip_code": " ", " city_name": " H\u00e9nin-Beaumont", " region_name": " ", " country_code": " FR"}, "timestamp": "2019-05-26", "gps": {"lat": "50.4194308", "lon": "2.9469926"}}, {"link": "https://www.instagram.com/p/Bx2CF8-lRRE", "place": {"id": "297581007", "name": "France", "slug": "france", "street_address": " ", " zip_code": " ", " city_name": " ", " region_name": " ", " country_code": " FR"}, "timestamp": "2019-05-24", "gps": {"lat": "46.603354", "lon": "1.8883335"}}, {"link": "https://www.instagram.com/p/BxzJVEaCe00", "place": {"id": "297581007", "name": "France", "slug": "france", "street_address": " ", " zip_code": " ", " city_name": " ", " region_name": " ", " country_code": " FR"}, "timestamp": "2019-05-23", "gps": {"lat": "46.603354", "lon": "1.8883335"}}, {"link": "https://www.instagram.com/p/Bxx2DJCl5nG", "place": {"id": "179086202130933", "name": "France T\u00e9l\u00e9visions", "slug": "france-televisions", "street_address": " 7", " zip_code": " 75015", " city_name": " Paris", " region_name": " ", " country_code": " FR"}, "timestamp": "2019-05-22", "gps": {"lat": "48.8566969", "lon": "2.3514616"}}, {"link": "https://www.instagram.com/p/BxvTp8OCLEH", "place": {"id": "44517887", "name": "Villeblevin", "slug": "villeblevin", "street_address": " ", " zip_code": " 89340", " city_name": " Villeblevin", " region_name": " ", " country_code": " FR"}, "timestamp": "2019-05-21", "gps": {"lat": "48.3264257", "lon": "3.0845696"}}, {"link": "https://www.instagram.com/p/BxnV7tGiFL9", "place": {"id": "213050058", "name": "Milan", "slug": "milan-italy", "street_address": " ", " zip_code": " ", " city_name": " Milan", " region_name": " ", " country_code": " IT"}, "timestamp": "2019-05-18", "gps": {"lat": "45.4668", "lon": "9.1905"}}, {"link": "https://www.instagram.com/p/BxnFJMwi6cp", "place": {"id": "252747884", "name": "Duomo di Milano - Milan Cathedral", "slug": "duomo-di-milano-milan-cathedral", "street_address": " Piazza Duomo", " zip_code": " 20122", " city_name": " Milan", " region_name": " ", " country_code": " IT"}, "timestamp": "2019-05-18", "gps": {"lat": "45.4668", "lon": "9.1905"}}, {"link": "https://www.instagram.com/p/Bxm6HQ7F3x2", "place": {"id": "456408324760320", "name": "Piazza del Duomo", "slug": "piazza-del-duomo", "street_address": " Piazza del Duomo", " zip_code": " 20123", " city_name": " Milan", " region_name": " ", " country_code": " IT"}, "timestamp": "2019-05-18", "gps": {"lat": "45.4668", "lon": "9.1905"}}, {"link": "https://www.instagram.com/p/BxmqdyniMtc", "place": {"id": "456408324760320", "name": "Piazza del Duomo", "slug": "piazza-del-duomo", "street_address": " Piazza del Duomo", " zip_code": " 20123", " city_name": " Milan", " region_name": " ", " country_code": " IT"}, "timestamp": "2019-05-18", "gps": {"lat": "45.4668", "lon": "9.1905"}}, {"link": "https://www.instagram.com/p/BxmXsxrCzJp", "place": {"id": "213050058", "name": "Milan", "slug": "milan-italy", "street_address": " ", " zip_code": " ", " city_name": " Milan", " region_name": " ", " country_code": " IT"}, "timestamp": "2019-05-18", "gps": {"lat": "45.4668", "lon": "9.1905"}}, {"link": "https://www.instagram.com/p/BxiWd4XIph5", "place": {"id": "275008734", "name": "Fessenheim", "slug": "fessenheim-alsace-france", "street_address": " ", " zip_code": " ", " city_name": " Fessenheim", " region_name": " ", " country_code": " FR"}, "timestamp": "2019-05-16", "gps": {"lat": "47.915436", "lon": "7.5360223"}}, {"link": "https://www.instagram.com/p/BxcocZ2i3eb", "place": {"id": "262956247802817", "name": "Kommunismiohvrite Memoriaal", "slug": "kommunismiohvrite-memoriaal", "street_address": " ", " zip_code": " ", " city_name": " Tallinn", " region_name": " ", " country_code": " EE"}, "timestamp": "2019-05-14", "gps": {"lat": "59.4250354", "lon": "24.74386926051089"}}, {"link": "https://www.instagram.com/p/Bxb_7EiiZys", "place": {"id": "12187826", "name": "Tallinn", "slug": "tallinn-estonia", "street_address": " ", " zip_code": " ", " city_name": " Tallinn", " region_name": " ", " country_code": " EE"}, "timestamp": "2019-05-14", "gps": {"lat": "59.4250354", "lon": "24.74386926051089"}}, {"link": "https://www.instagram.com/p/BxamQJoBNfd", "place": {"id": "213682323", "name": "Bratislava", "slug": "bratislava-slovakia", "street_address": " ", " zip_code": " ", " city_name": " Bratislava", " region_name": " ", " country_code": " SK"}, "timestamp": "2019-05-13", "gps": {"lat": "48.1516988", "lon": "17.1093063"}}, {"link": "https://www.instagram.com/p/BxaIBbpBa16", "place": {"id": "213682323", "name": "Bratislava", "slug": "bratislava-slovakia", "street_address": " ", " zip_code": " ", " city_name": " Bratislava", " region_name": " ", " country_code": " SK"}, "timestamp": "2019-05-13", "gps": {"lat": "48.1516988", "lon": "17.1093063"}}, {"link": "https://www.instagram.com/p/BxZ9UFHBKNp", "place": {"id": "213682323", "name": "Bratislava", "slug": "bratislava-slovakia", "street_address": " ", " zip_code": " ", " city_name": " Bratislava", " region_name": " ", " country_code": " SK"}, "timestamp": "2019-05-13", "gps": {"lat": "48.1516988", "lon": "17.1093063"}}, {"link": "https://www.instagram.com/p/BxZe-9MBCWw", "place": {"id": "213682323", "name": "Bratislava", "slug": "bratislava-slovakia", "street_address": " ", " zip_code": " ", " city_name": " Bratislava", " region_name": " ", " country_code": " SK"}, "timestamp": "2019-05-13", "gps": {"lat": "48.1516988", "lon": "17.1093063"}}, {"link": "https://www.instagram.com/p/BxVLaAqFjAz", "place": {"id": "264652695", "name": "Cers", "slug": "cers-languedoc-roussillon-france", "street_address": " ", " zip_code": " ", " city_name": " Cers", " region_name": " ", " country_code": " FR"}, "timestamp": "2019-05-11", "gps": {"lat": "43.3232846", "lon": "3.3057088"}}, {"link": "https://www.instagram.com/p/BxU_OklBC_s", "place": {"id": "264652695", "name": "Cers", "slug": "cers-languedoc-roussillon-france", "street_address": " ", " zip_code": " ", " city_name": " Cers", " region_name": " ", " country_code": " FR"}, "timestamp": "2019-05-11", "gps": {"lat": "43.3232846", "lon": "3.3057088"}}, {"link": "https://www.instagram.com/p/BxUkrjMhW8j", "place": {"id": "383081195538323", "name": "Cap d'Agde", "slug": "cap-dagde", "street_address": " ", " zip_code": " 34300", " city_name": " Le Cap D'Agde", " region_name": " ", " country_code": " FR"}, "timestamp": "2019-05-11", "gps": {"lat": "43.2845374", "lon": "3.5117752"}}, {"link": "https://www.instagram.com/p/BxTCaoWhG21", "place": {"id": "252928520", "name": "Draguignan", "slug": "draguignan", "street_address": " ", " zip_code": " 83300", " city_name": " Draguignan", " region_name": " ", " country_code": " FR"}, "timestamp": "2019-05-10", "gps": {"lat": "43.5374662", "lon": "6.4627333"}}, {"link": "https://www.instagram.com/p/BxMwHNbgDHO", "place": {"id": "417963697", "name": "H\u00e9nin-Beaumont", "slug": "henin-beaumont-france", "street_address": " ", " zip_code": " ", " city_name": " H\u00e9nin-Beaumont", " region_name": " ", " country_code": " FR"}, "timestamp": "2019-05-08", "gps": {"lat": "50.4194308", "lon": "2.9469926"}}, {"link": "https://www.instagram.com/p/BxLQOmXhsmg", "place": {"id": "395127580", "name": "Rocquigny", "slug": "rocquigny-champagne-ardenne-france", "street_address": " ", " zip_code": " ", " city_name": " Rocquigny", " region_name": " ", " country_code": " FR"}, "timestamp": "2019-05-07", "gps": {"lat": "50.0592018", "lon": "2.926892"}}, {"link": "https://www.instagram.com/p/BxFHhhXgn_V", "place": {"id": "56605856504", "name": "Vlaams Belang", "slug": "vlaams-belang", "street_address": " Madouplein 8 bus 9", " zip_code": " 1210", " city_name": " Brussels", " region_name": " ", " country_code": " BE"}, "timestamp": "2019-05-05", "gps": {"lat": "50.8436709", "lon": "4.3674366933879565"}}, {"link": "https://www.instagram.com/p/BxCPG7lgt1w", "place": {"id": "213232307", "name": "Sofia", "slug": "sofia-bulgaria", "street_address": " ", " zip_code": " ", " city_name": " Sofia", " region_name": " ", " country_code": " BG"}, "timestamp": "2019-05-04", "gps": {"lat": "42.6978634", "lon": "23.3221789"}}, {"link": "https://www.instagram.com/p/BxAXmtThcyH", "place": {"id": "214497461", "name": "Alexander Nevsky Cathedral", "slug": "alexander-nevsky-cathedral-sofia", "street_address": " pl. Sv.Aleksandar Nevski", " zip_code": " 1000", " city_name": " Sofia", " region_name": " ", " country_code": " BG"}, "timestamp": "2019-05-03", "gps": {"lat": "42.6978634", "lon": "23.3221789"}}, {"link": "https://www.instagram.com/p/BxAGWHFAlb5", "place": {"id": "213232307", "name": "Sofia", "slug": "sofia-bulgaria", "street_address": " ", " zip_code": " ", " city_name": " Sofia", " region_name": " ", " country_code": " BG"}, "timestamp": "2019-05-03", "gps": {"lat": "42.6978634", "lon": "23.3221789"}}, {"link": "https://www.instagram.com/p/Bw7R4pahxil", "place": {"id": "39507752", "name": "Metz", "slug": "metz-france", "street_address": " ", " zip_code": " ", " city_name": " Metz", " region_name": " ", " country_code": " FR"}, "timestamp": "2019-05-01", "gps": {"lat": "49.1196964", "lon": "6.1763552"}}, {"link": "https://www.instagram.com/p/BwxJarfhYx5", "place": {"id": "417963697", "name": "H\u00e9nin-Beaumont", "slug": "henin-beaumont-france", "street_address": " ", " zip_code": " ", " city_name": " H\u00e9nin-Beaumont", " region_name": " ", " country_code": " FR"}, "timestamp": "2019-04-27", "gps": {"lat": "50.4194308", "lon": "2.9469926"}}, {"link": "https://www.instagram.com/p/Bwun8GBB6fh", "place": {"id": "7538318", "name": "Copenhagen", "slug": "copenhagen", "street_address": " ", " zip_code": " 1050u20131778", " city_name": " Copenhagen", " region_name": " ", " country_code": " DK"}, "timestamp": "2019-04-26", "gps": {"lat": "55.6867243", "lon": "12.5700724"}}, {"link": "https://www.instagram.com/p/BwuG1aMA-6J", "place": {"id": "7538318", "name": "Copenhagen", "slug": "copenhagen", "street_address": " ", " zip_code": " 1050u20131778", " city_name": " Copenhagen", " region_name": " ", " country_code": " DK"}, "timestamp": "2019-04-26", "gps": {"lat": "55.6867243", "lon": "12.5700724"}}, {"link": "https://www.instagram.com/p/Bwr868Dh7UF", "place": {"id": "274885506", "name": "Prague", "slug": "prague", "street_address": " ", " zip_code": " 100 00 u2013 199 00", " city_name": " Prague", " region_name": " ", " country_code": " CZ"}, "timestamp": "2019-04-25", "gps": {"lat": "50.0874654", "lon": "14.4212535"}}, {"link": "https://www.instagram.com/p/BwrjrJ6h0F0", "place": {"id": "110589025635590", "name": "Prague", "slug": "prague-czech-republic", "street_address": " ", " zip_code": " ", " city_name": " Prague", " region_name": " ", " country_code": " CZ"}, "timestamp": "2019-04-25", "gps": {"lat": "50.0874654", "lon": "14.4212535"}}, {"link": "https://www.instagram.com/p/Bwe5yKABDvi", "place": {"id": "246482325", "name": "Beaucaire", "slug": "beaucaire-languedoc-roussillon-france", "street_address": " ", " zip_code": " ", " city_name": " Beaucaire", " region_name": " ", " country_code": " FR"}, "timestamp": "2019-04-20", "gps": {"lat": "43.8085436", "lon": "4.6392648"}}, {"link": "https://www.instagram.com/p/BwcwWXPBmuT", "place": {"id": "253705721", "name": "Feurs", "slug": "feurs", "street_address": " ", " zip_code": " 42110", " city_name": " Feurs", " region_name": " ", " country_code": " FR"}, "timestamp": "2019-04-19", "gps": {"lat": "45.7413143", "lon": "4.2263699"}}, {"link": "https://www.instagram.com/p/BwM6RdcBzX0", "place": {"id": "266971531", "name": "Mer", "slug": "mer", "street_address": " ", " zip_code": " ", " city_name": " Mer", " region_name": " ", " country_code": " FR"}, "timestamp": "2019-04-13", "gps": {"lat": "47.7083642", "lon": "1.5062706"}}, {"link": "https://www.instagram.com/p/BwKxdrEBrE8", "place": {"id": "327344039", "name": "Chassors", "slug": "chassors", "street_address": " ", " zip_code": " 16200", " city_name": " Chassors", " region_name": " ", " country_code": " FR"}, "timestamp": "2019-04-12", "gps": {"lat": "45.6974191", "lon": "-0.209846"}}, {"link": "https://www.instagram.com/p/Bv6--VWgYqm", "place": {"id": "271095367", "name": "Bruz", "slug": "bruz", "street_address": " ", " zip_code": " 35170", " city_name": " Bruz", " region_name": " ", " country_code": " FR"}, "timestamp": "2019-04-06", "gps": {"lat": "48.0245814", "lon": "-1.7471629"}}, {"link": "https://www.instagram.com/p/Bv6N5s-gHBK", "place": {"id": "324845852", "name": "Bretagne", "slug": "bretagne-france", "street_address": " ", " zip_code": " ", " city_name": " ", " region_name": " Bretagne", " country_code": " FR"}, "timestamp": "2019-04-06", "gps": {"lat": "48.16282835", "lon": "-2.684147344521837"}}, {"link": "https://www.instagram.com/p/Bv6JCBrAeMt", "place": {"id": "10139579", "name": "Josselin", "slug": "josselin", "street_address": " ", " zip_code": " 56120", " city_name": " Josselin", " region_name": " ", " country_code": " FR"}, "timestamp": "2019-04-06", "gps": {"lat": "47.9540017", "lon": "-2.5472538"}}, {"link": "https://www.instagram.com/p/Bv4mvCsBzkC", "place": {"id": "327893183", "name": "Rostrenen", "slug": "rostrenen", "street_address": " ", " zip_code": " 22110", " city_name": " Rostrenen", " region_name": " ", " country_code": " FR"}, "timestamp": "2019-04-05", "gps": {"lat": "48.237574", "lon": "-3.316142"}}, {"link": "https://www.instagram.com/p/Bv4RKb0ALtW", "place": {"id": "1469216029797499", "name": "Port du Guilvinec", "slug": "port-du-guilvinec", "street_address": " quai d'Estienne d'Orves ", " zip_code": " 29730", " city_name": " Guilvinec", " region_name": " ", " country_code": " FR"}, "timestamp": "2019-04-05", "gps": {"lat": "47.7952863", "lon": "-4.283314"}}, {"link": "https://www.instagram.com/p/Bv3cbYrA686", "place": {"id": "6889842", "name": "Paris", "slug": "paris-france", "street_address": " ", " zip_code": " ", " city_name": " Paris", " region_name": " ", " country_code": " FR"}, "timestamp": "2019-04-05", "gps": {"lat": "48.8566969", "lon": "2.3514616"}}, {"link": "https://www.instagram.com/p/BvXAC43A3T8", "place": {"id": "315268080", "name": "Buzet-Sur-Ba\u00efse", "slug": "buzet-sur-baise-aquitaine-france", "street_address": " ", " zip_code": " ", " city_name": " Buzet-Sur-Ba\u00efse", " region_name": " ", " country_code": " FR"}, "timestamp": "2019-03-23", "gps": {"lat": "44.25889", "lon": "0.3"}}, {"link": "https://www.instagram.com/p/BvWXiC1AiYS", "place": {"id": "215916685086874", "name": "Les Vignerons de Buzet", "slug": "les-vignerons-de-buzet", "street_address": " 56 avenue des C\u00f4tes de Buzet", " zip_code": " ", " city_name": " Buzet-Sur-Ba\u00efse", " region_name": " ", " country_code": " FR"}, "timestamp": "2019-03-23", "gps": {"lat": "44.25889", "lon": "0.3"}}, {"link": "https://www.instagram.com/p/BvUNuyWgtmi", "place": {"id": "101977618", "name": "Marseille", "slug": "marseille-france", "street_address": " ", " zip_code": " ", " city_name": " Marseille", " region_name": " ", " country_code": " FR"}, "timestamp": "2019-03-22", "gps": {"lat": "43.2961743", "lon": "5.3699525"}}, {"link": "https://www.instagram.com/p/BvT_n_Ngn_A", "place": {"id": "101977618", "name": "Marseille", "slug": "marseille-france", "street_address": " ", " zip_code": " ", " city_name": " Marseille", " region_name": " ", " country_code": " FR"}, "timestamp": "2019-03-22", "gps": {"lat": "43.2961743", "lon": "5.3699525"}}, {"link": "https://www.instagram.com/p/BvFUzWVg56w", "place": {"id": "385882916", "name": "La Rochette", "slug": "la-rochette-rhone-alpes-france", "street_address": " ", " zip_code": " ", " city_name": " La Rochette", " region_name": " ", " country_code": " FR"}, "timestamp": "2019-03-16", "gps": {"lat": "48.5045038", "lon": "2.662899"}}, {"link": "https://www.instagram.com/p/BvEgZwKAn6V", "place": {"id": "279059289", "name": "Apremont", "slug": "apremont-rhone-alpes-france", "street_address": " ", " zip_code": " ", " city_name": " Apremont", " region_name": " ", " country_code": " FR"}, "timestamp": "2019-03-16", "gps": {"lat": "49.2247297", "lon": "2.5113646"}}, {"link": "https://www.instagram.com/p/Bu1b65TAmbs", "place": {"id": "287871582", "name": "Richemont", "slug": "richemont-haute-normandie-france", "street_address": " ", " zip_code": " ", " city_name": " Richemont", " region_name": " ", " country_code": " FR"}, "timestamp": "2019-03-10", "gps": {"lat": "49.812401", "lon": "1.6410046"}}, {"link": "https://www.instagram.com/p/BujdCH6ggp1", "place": {"id": "258783225", "name": "Bessi\u00e8res", "slug": "bessieres-midi-pyrenees-france", "street_address": " ", " zip_code": " ", " city_name": " Bessi\u00e8res", " region_name": " ", " country_code": " FR"}, "timestamp": "2019-03-03", "gps": {"lat": "43.8002365", "lon": "1.6076595"}}, {"link": "https://www.instagram.com/p/BubyAfeAp2T", "place": {"id": "983414758", "name": "Salon de l'Agriculture Paris", "slug": "salon-de-lagriculture-paris", "street_address": " 1 place de la Porte de Versailles", " zip_code": " 75015", " city_name": " Paris", " region_name": " ", " country_code": " FR"}, "timestamp": "2019-02-28", "gps": {"lat": "48.8566969", "lon": "2.3514616"}}, {"link": "https://www.instagram.com/p/Bubk-QLg-sG", "place": {"id": "983414758", "name": "Salon de l'Agriculture Paris", "slug": "salon-de-lagriculture-paris", "street_address": " 1 place de la Porte de Versailles", " zip_code": " 75015", " city_name": " Paris", " region_name": " ", " country_code": " FR"}, "timestamp": "2019-02-28", "gps": {"lat": "48.8566969", "lon": "2.3514616"}}, {"link": "https://www.instagram.com/p/BubSZqlgGk6", "place": {"id": "983414758", "name": "Salon de l'Agriculture Paris", "slug": "salon-de-lagriculture-paris", "street_address": " 1 place de la Porte de Versailles", " zip_code": " 75015", " city_name": " Paris", " region_name": " ", " country_code": " FR"}, "timestamp": "2019-02-28", "gps": {"lat": "48.8566969", "lon": "2.3514616"}}, {"link": "https://www.instagram.com/p/BubLkAsAgNO", "place": {"id": "983414758", "name": "Salon de l'Agriculture Paris", "slug": "salon-de-lagriculture-paris", "street_address": " 1 place de la Porte de Versailles", " zip_code": " 75015", " city_name": " Paris", " region_name": " ", " country_code": " FR"}, "timestamp": "2019-02-28", "gps": {"lat": "48.8566969", "lon": "2.3514616"}}, {"link": "https://www.instagram.com/p/Bua-ZrHg5-4", "place": {"id": "983414758", "name": "Salon de l'Agriculture Paris", "slug": "salon-de-lagriculture-paris", "street_address": " 1 place de la Porte de Versailles", " zip_code": " 75015", " city_name": " Paris", " region_name": " ", " country_code": " FR"}, "timestamp": "2019-02-28", "gps": {"lat": "48.8566969", "lon": "2.3514616"}}, {"link": "https://www.instagram.com/p/BuRX73yAshN", "place": {"id": "252276215", "name": "Caudry", "slug": "caudry-france", "street_address": " ", " zip_code": " ", " city_name": " Caudry", " region_name": " ", " country_code": " FR"}, "timestamp": "2019-02-24", "gps": {"lat": "50.1243363", "lon": "3.4105032"}}, {"link": "https://www.instagram.com/p/BuQ8vhMg4FO", "place": {"id": "252276215", "name": "Caudry", "slug": "caudry-france", "street_address": " ", " zip_code": " ", " city_name": " Caudry", " region_name": " ", " country_code": " FR"}, "timestamp": "2019-02-24", "gps": {"lat": "50.1243363", "lon": "3.4105032"}}, {"link": "https://www.instagram.com/p/BuO0iZygS2d", "place": {"id": "328086859", "name": "Dommartin-Le-Saint-P\u00e8re", "slug": "dommartin-le-saint-pere-champagne-ardenne-france", "street_address": " ", " zip_code": " ", " city_name": " Dommartin-Le-Saint-P\u00e8re", " region_name": " ", " country_code": " FR"}, "timestamp": "2019-02-23", "gps": {"lat": "48.3938376", "lon": "4.9222708"}}, {"link": "https://www.instagram.com/p/BuOf8YZAFVk", "place": {"id": "108751819149101", "name": "Maizi\u00e8res", "slug": "maizieres-haute-marne", "street_address": " ", " zip_code": " 52300", " city_name": " ", " region_name": " ", " country_code": " "}, "timestamp": "2019-02-23", "gps": {"lat": "50.3237921", "lon": "2.4472663"}}, {"link": "https://www.instagram.com/p/BuHj0b9gKyG", "place": {"id": "300545937430300", "name": "Bruxelles", "slug": "bruxelles", "street_address": " 96B  Rue de la Tour", " zip_code": " 75116", " city_name": " Paris", " region_name": " ", " country_code": " FR"}, "timestamp": "2019-02-20", "gps": {"lat": "48.8566969", "lon": "2.3514616"}}, {"link": "https://www.instagram.com/p/Bt_iMgbAj0K", "place": {"id": "376771214", "name": "Saint-Paul-du-Bois", "slug": "saint-paul-du-bois", "street_address": " ", " zip_code": " 49310", " city_name": " Saint-Paul-du-Bois", " region_name": " ", " country_code": " FR"}, "timestamp": "2019-02-17", "gps": {"lat": "47.0806403", "lon": "-0.5441818"}}, {"link": "https://www.instagram.com/p/Bt-6j6clq6k", "place": {"id": "213168722", "name": "Lyon", "slug": "lyon-france", "street_address": " ", " zip_code": " ", " city_name": " Lyon", " region_name": " ", " country_code": " FR"}, "timestamp": "2019-02-17", "gps": {"lat": "45.7578137", "lon": "4.8320114"}}, {"link": "https://www.instagram.com/p/Bt3kesiAsY8", "place": {"id": "213168722", "name": "Lyon", "slug": "lyon-france", "street_address": " ", " zip_code": " ", " city_name": " Lyon", " region_name": " ", " country_code": " FR"}, "timestamp": "2019-02-14", "gps": {"lat": "45.7578137", "lon": "4.8320114"}}, {"link": "https://www.instagram.com/p/Btqy43AizDA", "place": {"id": "330868075", "name": "Saint-\u00c9bremond-de-Bonfoss\u00e9", "slug": "saint-ebremond-de-bonfosse", "street_address": " ", " zip_code": " 50750", " city_name": " Saint-\u00c9bremond-de-Bonfoss\u00e9", " region_name": " ", " country_code": " FR"}, "timestamp": "2019-02-09", "gps": {"lat": "49.067403999999996", "lon": "-1.1492661655640575"}}, {"link": "https://www.instagram.com/p/BtqRDlbCxAu", "place": {"id": "301186387", "name": "Basse-Normandie", "slug": "basse-normandie-france", "street_address": " ", " zip_code": " ", " city_name": " ", " region_name": " Basse-Normandie", " country_code": " FR"}, "timestamp": "2019-02-09", "gps": {"lat": "48.953684499999994", "lon": "-0.573365358805311"}}, {"link": "https://www.instagram.com/p/Bs0uM8MlAWS", "place": {"id": "258516696", "name": "Le Thor", "slug": "le-thor", "street_address": " ", " zip_code": " 84250", " city_name": " Le Thor", " region_name": " ", " country_code": " FR"}, "timestamp": "2019-01-19", "gps": {"lat": "43.928823", "lon": "4.9945784"}}, {"link": "https://www.instagram.com/p/Bs0eXAalsyA", "place": {"id": "258516696", "name": "Le Thor", "slug": "le-thor", "street_address": " ", " zip_code": " 84250", " city_name": " Le Thor", " region_name": " ", " country_code": " FR"}, "timestamp": "2019-01-19", "gps": {"lat": "43.928823", "lon": "4.9945784"}}, {"link": "https://www.instagram.com/p/BslFZO_l_et", "place": {"id": "417426478", "name": "Maison de la Mutualit\u00e9", "slug": "maison-de-la-mutualite", "street_address": " 24 rue Saint-Victor", " zip_code": " 75005", " city_name": " Paris", " region_name": " ", " country_code": " FR"}, "timestamp": "2019-01-13", "gps": {"lat": "48.8566969", "lon": "2.3514616"}}, {"link": "https://www.instagram.com/p/BrP0KzJldmk", "place": {"id": "5097252", "name": "Obernai", "slug": "obernai", "street_address": " ", " zip_code": " 67210", " city_name": " Obernai", " region_name": " ", " country_code": " FR"}, "timestamp": "2018-12-11", "gps": {"lat": "48.4623358", "lon": "7.4817123"}}, {"link": "https://www.instagram.com/p/BrIbTgsFJyK", "place": {"id": "213633143", "name": "Brussels", "slug": "brussels-belgium", "street_address": " ", " zip_code": " ", " city_name": " Brussels", " region_name": " ", " country_code": " BE"}, "timestamp": "2018-12-08", "gps": {"lat": "50.8436709", "lon": "4.3674366933879565"}}, {"link": "https://www.instagram.com/p/BrDN8h2FFYM", "place": {"id": "379140593", "name": "Longueil-Sainte-Marie", "slug": "longueil-sainte-marie-picardie-france", "street_address": " ", " zip_code": " ", " city_name": " Longueil-Sainte-Marie", " region_name": " ", " country_code": " FR"}, "timestamp": "2018-12-06", "gps": {"lat": "49.3576636", "lon": "2.7176908"}}, {"link": "https://www.instagram.com/p/Bq-otVIFHEi", "place": {"id": "417963697", "name": "H\u00e9nin-Beaumont", "slug": "henin-beaumont-france", "street_address": " ", " zip_code": " ", " city_name": " H\u00e9nin-Beaumont", " region_name": " ", " country_code": " FR"}, "timestamp": "2018-12-04", "gps": {"lat": "50.4194308", "lon": "2.9469926"}}, {"link": "https://www.instagram.com/p/Bq0QOGjH3qm", "place": {"id": "417963697", "name": "H\u00e9nin-Beaumont", "slug": "henin-beaumont-france", "street_address": " ", " zip_code": " ", " city_name": " H\u00e9nin-Beaumont", " region_name": " ", " country_code": " FR"}, "timestamp": "2018-11-30", "gps": {"lat": "50.4194308", "lon": "2.9469926"}}, {"link": "https://www.instagram.com/p/BqPzufqFc-e", "place": {"id": "448314648954251", "name": "BTV", "slug": "btv", "street_address": " Bulgaria Sq. 1", " zip_code": " 1463", " city_name": " Sofia", " region_name": " ", " country_code": " BG"}, "timestamp": "2018-11-16", "gps": {"lat": "42.6978634", "lon": "23.3221789"}}, {"link": "https://www.instagram.com/p/BqPwBkDlluL", "place": {"id": "213232307", "name": "Sofia", "slug": "sofia-bulgaria", "street_address": " ", " zip_code": " ", " city_name": " Sofia", " region_name": " ", " country_code": " BG"}, "timestamp": "2018-11-16", "gps": {"lat": "42.6978634", "lon": "23.3221789"}}, {"link": "https://www.instagram.com/p/BqC1x1ZFvBp", "place": {"id": "417963697", "name": "H\u00e9nin-Beaumont", "slug": "henin-beaumont-france", "street_address": " ", " zip_code": " ", " city_name": " H\u00e9nin-Beaumont", " region_name": " ", " country_code": " FR"}, "timestamp": "2018-11-11", "gps": {"lat": "50.4194308", "lon": "2.9469926"}}, {"link": "https://www.instagram.com/p/Bp_0WZaFFQe", "place": {"id": "705523334", "name": "Ossuaire de Douaumont", "slug": "ossuaire-de-douaumont", "street_address": " ", " zip_code": " 55100", " city_name": " Verdun", " region_name": " ", " country_code": " FR"}, "timestamp": "2018-11-10", "gps": {"lat": "49.1589278", "lon": "5.3867277"}}, {"link": "https://www.instagram.com/p/BpHOksWgsMo", "place": {"id": "417963697", "name": "H\u00e9nin-Beaumont", "slug": "henin-beaumont-france", "street_address": " ", " zip_code": " ", " city_name": " H\u00e9nin-Beaumont", " region_name": " ", " country_code": " FR"}, "timestamp": "2018-10-19", "gps": {"lat": "50.4194308", "lon": "2.9469926"}}, {"link": "https://www.instagram.com/p/Bo4NA-LAv2Z", "place": {"id": "269154356", "name": "Cublac", "slug": "cublac-limousin-france", "street_address": " ", " zip_code": " ", " city_name": " Cublac", " region_name": " ", " country_code": " FR"}, "timestamp": "2018-10-13", "gps": {"lat": "45.1442316", "lon": "1.3056983"}}, {"link": "https://www.instagram.com/p/BorZageALn0", "place": {"id": "31499759", "name": "Rome", "slug": "rome-italy", "street_address": " ", " zip_code": " ", " city_name": " Rome", " region_name": " ", " country_code": " IT"}, "timestamp": "2018-10-08", "gps": {"lat": "41.8933203", "lon": "12.4829321"}}, {"link": "https://www.instagram.com/p/BoqyeudgHdH", "place": {"id": "847552070", "name": "Ugl Confederazione", "slug": "ugl-confederazione", "street_address": " via delle Botteghe Oscure 54", " zip_code": " 00186", " city_name": " Rome", " region_name": " ", " country_code": " IT"}, "timestamp": "2018-10-08", "gps": {"lat": "41.8933203", "lon": "12.4829321"}}, {"link": "https://www.instagram.com/p/BoqqLHmg06_", "place": {"id": "31499759", "name": "Rome", "slug": "rome-italy", "street_address": " ", " zip_code": " ", " city_name": " Rome", " region_name": " ", " country_code": " IT"}, "timestamp": "2018-10-08", "gps": {"lat": "41.8933203", "lon": "12.4829321"}}, {"link": "https://www.instagram.com/p/BojoBjTAJ4w", "place": {"id": "1875355992514660", "name": "Porte de Versailles", "slug": "porte-de-versailles", "street_address": " 40  Boulevard Victor", " zip_code": " 75015", " city_name": " Paris", " region_name": " ", " country_code": " FR"}, "timestamp": "2018-10-05", "gps": {"lat": "48.8566969", "lon": "2.3514616"}}, {"link": "https://www.instagram.com/p/BnywjF8hP6p", "place": {"id": "256485025", "name": "Fr\u00e9jus", "slug": "frejus", "street_address": " ", " zip_code": " 83600", " city_name": " Fr\u00e9jus", " region_name": " ", " country_code": " FR"}, "timestamp": "2018-09-16", "gps": {"lat": "43.4330308", "lon": "6.7360182"}}, {"link": "https://www.instagram.com/p/Bnvv_tQBUfa", "place": {"id": "256485025", "name": "Fr\u00e9jus", "slug": "frejus", "street_address": " ", " zip_code": " 83600", " city_name": " Fr\u00e9jus", " region_name": " ", " country_code": " FR"}, "timestamp": "2018-09-15", "gps": {"lat": "43.4330308", "lon": "6.7360182"}}, {"link": "https://www.instagram.com/p/BntLw-_B8pp", "place": {"id": "981281940", "name": "Rue Jeanne-d'Arc (Paris)", "slug": "rue-jeanne-darc-paris", "street_address": " ", " zip_code": " ", " city_name": " Paris", " region_name": " ", " country_code": " FR"}, "timestamp": "2018-09-14", "gps": {"lat": "48.8566969", "lon": "2.3514616"}}, {"link": "https://www.instagram.com/p/BnbTOdeAUFP", "place": {"id": "245672445", "name": "Ch\u00e2lons", "slug": "chalons-champagne-ardenne-france", "street_address": " ", " zip_code": " ", " city_name": " Ch\u00e2lons", " region_name": " ", " country_code": " FR"}, "timestamp": "2018-09-07", "gps": {"lat": "45.4458331", "lon": "4.9310763"}}, {"link": "https://www.instagram.com/p/BnQlKP3gnVK", "place": {"id": "417963697", "name": "H\u00e9nin-Beaumont", "slug": "henin-beaumont-france", "street_address": " ", " zip_code": " ", " city_name": " H\u00e9nin-Beaumont", " region_name": " ", " country_code": " FR"}, "timestamp": "2018-09-03", "gps": {"lat": "50.4194308", "lon": "2.9469926"}}, {"link": "https://www.instagram.com/p/BlNchqQATEI", "place": {"id": "417963697", "name": "H\u00e9nin-Beaumont", "slug": "henin-beaumont-france", "street_address": " ", " zip_code": " ", " city_name": " H\u00e9nin-Beaumont", " region_name": " ", " country_code": " FR"}, "timestamp": "2018-07-14", "gps": {"lat": "50.4194308", "lon": "2.9469926"}}, {"link": "https://www.instagram.com/p/BknbErGgDhv", "place": {"id": "417963697", "name": "H\u00e9nin-Beaumont", "slug": "henin-beaumont-france", "street_address": " ", " zip_code": " ", " city_name": " H\u00e9nin-Beaumont", " region_name": " ", " country_code": " FR"}, "timestamp": "2018-06-29", "gps": {"lat": "50.4194308", "lon": "2.9469926"}}, {"link": "https://www.instagram.com/p/Bj2VZAsAqhR", "place": {"id": "417963697", "name": "H\u00e9nin-Beaumont", "slug": "henin-beaumont-france", "street_address": " ", " zip_code": " ", " city_name": " H\u00e9nin-Beaumont", " region_name": " ", " country_code": " FR"}, "timestamp": "2018-06-10", "gps": {"lat": "50.4194308", "lon": "2.9469926"}}, {"link": "https://www.instagram.com/p/BihB5rXhkI6", "place": {"id": "263281551", "name": "Carvin", "slug": "carvin-france", "street_address": " ", " zip_code": " ", " city_name": " Carvin", " region_name": " ", " country_code": " FR"}, "timestamp": "2018-05-08", "gps": {"lat": "50.4934145", "lon": "2.9577519"}}, {"link": "https://www.instagram.com/p/BiO0lQkB3HX", "place": {"id": "322625", "name": "Cannes", "slug": "cannes", "street_address": " ", " zip_code": " 06400", " city_name": " Cannes", " region_name": " ", " country_code": " FR"}, "timestamp": "2018-05-01", "gps": {"lat": "43.5515198", "lon": "7.0134418"}}, {"link": "https://www.instagram.com/p/BhzRAmZhGhq", "place": {"id": "395643", "name": "Assembl\u00e9e nationale", "slug": "assemblee-nationale", "street_address": " 126", " zip_code": " 75355", " city_name": " Paris", " region_name": " ", " country_code": " FR"}, "timestamp": "2018-04-20", "gps": {"lat": "48.8566969", "lon": "2.3514616"}}, {"link": "https://www.instagram.com/p/BhmUqRrhu5F", "place": {"id": "417963697", "name": "H\u00e9nin-Beaumont", "slug": "henin-beaumont-france", "street_address": " ", " zip_code": " ", " city_name": " H\u00e9nin-Beaumont", " region_name": " ", " country_code": " FR"}, "timestamp": "2018-04-15", "gps": {"lat": "50.4194308", "lon": "2.9469926"}}, {"link": "https://www.instagram.com/p/Bhlri1hB7NQ", "place": {"id": "417963697", "name": "H\u00e9nin-Beaumont", "slug": "henin-beaumont-france", "street_address": " ", " zip_code": " ", " city_name": " H\u00e9nin-Beaumont", " region_name": " ", " country_code": " FR"}, "timestamp": "2018-04-15", "gps": {"lat": "50.4194308", "lon": "2.9469926"}}, {"link": "https://www.instagram.com/p/Bg4RJAwhzFN", "place": {"id": "6889842", "name": "Paris", "slug": "paris-france", "street_address": " ", " zip_code": " ", " city_name": " Paris", " region_name": " ", " country_code": " FR"}, "timestamp": "2018-03-28", "gps": {"lat": "48.8566969", "lon": "2.3514616"}}, {"link": "https://www.instagram.com/p/BgogDZ1hWXI", "place": {"id": "1031629045", "name": "SITL", "slug": "sitl", "street_address": " 1 Place de la Porte de Versailles", " zip_code": " 75015", " city_name": " Paris", " region_name": " ", " country_code": " FR"}, "timestamp": "2018-03-22", "gps": {"lat": "48.8566969", "lon": "2.3514616"}}, {"link": "https://www.instagram.com/p/BgMDWX9hP6j", "place": {"id": "1168159", "name": "Lille Grand Palais", "slug": "lille-grand-palais", "street_address": " 1 Bd des Cit\u00e9s Unies", " zip_code": " 59777", " city_name": " Lille", " region_name": " ", " country_code": " FR"}, "timestamp": "2018-03-11", "gps": {"lat": "50.6365654", "lon": "3.0635282"}}, {"link": "https://www.instagram.com/p/BgLrbvthO71", "place": {"id": "1168159", "name": "Lille Grand Palais", "slug": "lille-grand-palais", "street_address": " 1 Bd des Cit\u00e9s Unies", " zip_code": " 59777", " city_name": " Lille", " region_name": " ", " country_code": " FR"}, "timestamp": "2018-03-11", "gps": {"lat": "50.6365654", "lon": "3.0635282"}}, {"link": "https://www.instagram.com/p/BgKDm2rBHu5", "place": {"id": "215780716", "name": "Lille", "slug": "lille-france", "street_address": " ", " zip_code": " ", " city_name": " Lille", " region_name": " ", " country_code": " FR"}, "timestamp": "2018-03-10", "gps": {"lat": "50.6365654", "lon": "3.0635282"}}, {"link": "https://www.instagram.com/p/BgJqmYyBuwD", "place": {"id": "1168159", "name": "Lille Grand Palais", "slug": "lille-grand-palais", "street_address": " 1 Bd des Cit\u00e9s Unies", " zip_code": " 59777", " city_name": " Lille", " region_name": " ", " country_code": " FR"}, "timestamp": "2018-03-10", "gps": {"lat": "50.6365654", "lon": "3.0635282"}}, {"link": "https://www.instagram.com/p/BgJUrR1Bp06", "place": {"id": "1168159", "name": "Lille Grand Palais", "slug": "lille-grand-palais", "street_address": " 1 Bd des Cit\u00e9s Unies", " zip_code": " 59777", " city_name": " Lille", " region_name": " ", " country_code": " FR"}, "timestamp": "2018-03-10", "gps": {"lat": "50.6365654", "lon": "3.0635282"}}, {"link": "https://www.instagram.com/p/BgJBnGfB8B8", "place": {"id": "1168159", "name": "Lille Grand Palais", "slug": "lille-grand-palais", "street_address": " 1 Bd des Cit\u00e9s Unies", " zip_code": " 59777", " city_name": " Lille", " region_name": " ", " country_code": " FR"}, "timestamp": "2018-03-10", "gps": {"lat": "50.6365654", "lon": "3.0635282"}}, {"link": "https://www.instagram.com/p/Bf9BGJyBkn4", "place": {"id": "213050058", "name": "Milan", "slug": "milan-italy", "street_address": " ", " zip_code": " ", " city_name": " Milan", " region_name": " ", " country_code": " IT"}, "timestamp": "2018-03-05", "gps": {"lat": "45.4668", "lon": "9.1905"}}, {"link": "https://www.instagram.com/p/Bfv7pYoh0wE", "place": {"id": "983414758", "name": "Salon de l'Agriculture Paris", "slug": "salon-de-lagriculture-paris", "street_address": " 1 place de la Porte de Versailles", " zip_code": " 75015", " city_name": " Paris", " region_name": " ", " country_code": " FR"}, "timestamp": "2018-02-28", "gps": {"lat": "48.8566969", "lon": "2.3514616"}}, {"link": "https://www.instagram.com/p/Bfvsh9pBeZc", "place": {"id": "983414758", "name": "Salon de l'Agriculture Paris", "slug": "salon-de-lagriculture-paris", "street_address": " 1 place de la Porte de Versailles", " zip_code": " 75015", " city_name": " Paris", " region_name": " ", " country_code": " FR"}, "timestamp": "2018-02-28", "gps": {"lat": "48.8566969", "lon": "2.3514616"}}, {"link": "https://www.instagram.com/p/BfvYBDbhsVO", "place": {"id": "983414758", "name": "Salon de l'Agriculture Paris", "slug": "salon-de-lagriculture-paris", "street_address": " 1 place de la Porte de Versailles", " zip_code": " 75015", " city_name": " Paris", " region_name": " ", " country_code": " FR"}, "timestamp": "2018-02-28", "gps": {"lat": "48.8566969", "lon": "2.3514616"}}, {"link": "https://www.instagram.com/p/BflXwdMBFkp", "place": {"id": "254847240", "name": "Kintzheim", "slug": "kintzheim", "street_address": " ", " zip_code": " 67600", " city_name": " Kintzheim", " region_name": " ", " country_code": " FR"}, "timestamp": "2018-02-24", "gps": {"lat": "48.2550027", "lon": "7.396165"}}, {"link": "https://www.instagram.com/p/BfV6iSRh9G4", "place": {"id": "238133986", "name": "Laon", "slug": "laon-france", "street_address": " ", " zip_code": " ", " city_name": " Laon", " region_name": " ", " country_code": " FR"}, "timestamp": "2018-02-18", "gps": {"lat": "49.564665", "lon": "3.620686"}}, {"link": "https://www.instagram.com/p/Bex4kxTB-OZ", "place": {"id": "497685675", "name": "Garden Palace Cabaret Music-Hall", "slug": "garden-palace-cabaret-music-hall", "street_address": " Route de la Roche-Blanche", " zip_code": " 63450", " city_name": " Le Crest", " region_name": " ", " country_code": " FR"}, "timestamp": "2018-02-04", "gps": {"lat": "45.6868295", "lon": "3.1277664"}}, {"link": "https://www.instagram.com/p/Bei2JNhB4ii", "place": {"id": "417963697", "name": "H\u00e9nin-Beaumont", "slug": "henin-beaumont-france", "street_address": " ", " zip_code": " ", " city_name": " H\u00e9nin-Beaumont", " region_name": " ", " country_code": " FR"}, "timestamp": "2018-01-29", "gps": {"lat": "50.4194308", "lon": "2.9469926"}}, {"link": "https://www.instagram.com/p/BeQbthBBJxb", "place": {"id": "6889842", "name": "Paris", "slug": "paris-france", "street_address": " ", " zip_code": " ", " city_name": " Paris", " region_name": " ", " country_code": " FR"}, "timestamp": "2018-01-22", "gps": {"lat": "48.8566969", "lon": "2.3514616"}}, {"link": "https://www.instagram.com/p/BePtqdThK8X", "place": {"id": "252276215", "name": "Caudry", "slug": "caudry-france", "street_address": " ", " zip_code": " ", " city_name": " Caudry", " region_name": " ", " country_code": " FR"}, "timestamp": "2018-01-22", "gps": {"lat": "50.1243363", "lon": "3.4105032"}}, {"link": "https://www.instagram.com/p/BeAvbnkhZjd", "place": {"id": "225351404", "name": "Vincennes", "slug": "vincennes-france", "street_address": " ", " zip_code": " ", " city_name": " Vincennes", " region_name": " ", " country_code": " FR"}, "timestamp": "2018-01-16", "gps": {"lat": "48.8474508", "lon": "2.4396714"}}, {"link": "https://www.instagram.com/p/Bd5G63rBduC", "place": {"id": "269729147", "name": "Le Luc", "slug": "le-luc", "street_address": " ", " zip_code": " 83340", " city_name": " Le Luc", " region_name": " ", " country_code": " FR"}, "timestamp": "2018-01-13", "gps": {"lat": "43.2879229", "lon": "-0.6586027"}}, {"link": "https://www.instagram.com/p/Bd47_F9BDvd", "place": {"id": "261834363", "name": "Lillers", "slug": "lillers-france", "street_address": " ", " zip_code": " ", " city_name": " Lillers", " region_name": " ", " country_code": " FR"}, "timestamp": "2018-01-13", "gps": {"lat": "50.5606", "lon": "2.47604"}}, {"link": "https://www.instagram.com/p/Bcxjfhph2fM", "place": {"id": "110589025635590", "name": "Prague", "slug": "prague-czech-republic", "street_address": " ", " zip_code": " ", " city_name": " Prague", " region_name": " ", " country_code": " CZ"}, "timestamp": "2017-12-16", "gps": {"lat": "50.0874654", "lon": "14.4212535"}}, {"link": "https://www.instagram.com/p/BcxT-nQhEr5", "place": {"id": "110589025635590", "name": "Prague", "slug": "prague-czech-republic", "street_address": " ", " zip_code": " ", " city_name": " Prague", " region_name": " ", " country_code": " CZ"}, "timestamp": "2017-12-16", "gps": {"lat": "50.0874654", "lon": "14.4212535"}}, {"link": "https://www.instagram.com/p/Bcc9WooBpfd", "place": {"id": "417963697", "name": "H\u00e9nin-Beaumont", "slug": "henin-beaumont-france", "street_address": " ", " zip_code": " ", " city_name": " H\u00e9nin-Beaumont", " region_name": " ", " country_code": " FR"}, "timestamp": "2017-12-08", "gps": {"lat": "50.4194308", "lon": "2.9469926"}}, {"link": "https://www.instagram.com/p/BcNC9sVBK2i", "place": {"id": "213433310", "name": "Saintes", "slug": "saintes-france", "street_address": " ", " zip_code": " ", " city_name": " Saintes", " region_name": " ", " country_code": " FR"}, "timestamp": "2017-12-02", "gps": {"lat": "45.7420801", "lon": "-0.6299329"}}, {"link": "https://www.instagram.com/p/BcMuHpLBpiv", "place": {"id": "213433310", "name": "Saintes", "slug": "saintes-france", "street_address": " ", " zip_code": " ", " city_name": " Saintes", " region_name": " ", " country_code": " FR"}, "timestamp": "2017-12-02", "gps": {"lat": "45.7420801", "lon": "-0.6299329"}}, {"link": "https://www.instagram.com/p/Bb908PJhoFk", "place": {"id": "253764133", "name": "Corse", "slug": "corse-france", "street_address": " ", " zip_code": " ", " city_name": " ", " region_name": " Corse", " country_code": " FR"}, "timestamp": "2017-11-26", "gps": {"lat": "42.188089649999995", "lon": "9.068413771427695"}}, {"link": "https://www.instagram.com/p/Bb9Z293hW9m", "place": {"id": "250424581", "name": "Folelli", "slug": "folelli-corse-france", "street_address": " ", " zip_code": " ", " city_name": " Folelli", " region_name": " ", " country_code": " FR"}, "timestamp": "2017-11-26", "gps": {"lat": "42.444114", "lon": "9.5069988"}}, {"link": "https://www.instagram.com/p/Bb9Tuh5BMvp", "place": {"id": "650670683", "name": "Pruno", "slug": "pruno", "street_address": " ", " zip_code": " ", " city_name": " Pruno", " region_name": " ", " country_code": " FR"}, "timestamp": "2017-11-26", "gps": {"lat": "42.4163215", "lon": "9.4405239"}}, {"link": "https://www.instagram.com/p/Bb9OQPIhFpE", "place": {"id": "650670683", "name": "Pruno", "slug": "pruno", "street_address": " ", " zip_code": " ", " city_name": " Pruno", " region_name": " ", " country_code": " FR"}, "timestamp": "2017-11-26", "gps": {"lat": "42.4163215", "lon": "9.4405239"}}, {"link": "https://www.instagram.com/p/Bb9Mb75hrOP", "place": {"id": "650670683", "name": "Pruno", "slug": "pruno", "street_address": " ", " zip_code": " ", " city_name": " Pruno", " region_name": " ", " country_code": " FR"}, "timestamp": "2017-11-26", "gps": {"lat": "42.4163215", "lon": "9.4405239"}}, {"link": "https://www.instagram.com/p/Bb7cRojBsuo", "place": {"id": "417963697", "name": "H\u00e9nin-Beaumont", "slug": "henin-beaumont-france", "street_address": " ", " zip_code": " ", " city_name": " H\u00e9nin-Beaumont", " region_name": " ", " country_code": " FR"}, "timestamp": "2017-11-25", "gps": {"lat": "50.4194308", "lon": "2.9469926"}}, {"link": "https://www.instagram.com/p/Bb4nky8hhXG", "place": {"id": "395643", "name": "Assembl\u00e9e nationale", "slug": "assemblee-nationale", "street_address": " 126", " zip_code": " 75355", " city_name": " Paris", " region_name": " ", " country_code": " FR"}, "timestamp": "2017-11-24", "gps": {"lat": "48.8566969", "lon": "2.3514616"}}, {"link": "https://www.instagram.com/p/BbZUbTahH_w", "place": {"id": "215125488", "name": "Parc Des Expositions (Paris Expo)", "slug": "parc-des-expositions-paris-expo", "street_address": " 1 Place de la Porte de Versailles", " zip_code": " 75015", " city_name": " Paris", " region_name": " ", " country_code": " FR"}, "timestamp": "2017-11-12", "gps": {"lat": "48.8566969", "lon": "2.3514616"}}, {"link": "https://www.instagram.com/p/BbWqPPkhFzy", "place": {"id": "417963697", "name": "H\u00e9nin-Beaumont", "slug": "henin-beaumont-france", "street_address": " ", " zip_code": " ", " city_name": " H\u00e9nin-Beaumont", " region_name": " ", " country_code": " FR"}, "timestamp": "2017-11-11", "gps": {"lat": "50.4194308", "lon": "2.9469926"}}, {"link": "https://www.instagram.com/p/BbFCGc8Bg7K", "place": {"id": "370549855", "name": "Seine-et-Marne", "slug": "seine-et-marne", "street_address": " ", " zip_code": " ", " city_name": " ", " region_name": " ", " country_code": " "}, "timestamp": "2017-11-04", "gps": {"lat": "48.61902069999999", "lon": "3.0418157506708345"}}, {"link": "https://www.instagram.com/p/BbE3lKZhL9b", "place": {"id": "275682743", "name": "Fontenay-Tr\u00e9signy", "slug": "fontenay-tresigny", "street_address": " ", " zip_code": " 77610", " city_name": " Fontenay-Tr\u00e9signy", " region_name": " ", " country_code": " FR"}, "timestamp": "2017-11-04", "gps": {"lat": "48.7100369", "lon": "2.8722456"}}, {"link": "https://www.instagram.com/p/Ba_w1fEBCgS", "place": {"id": "787544476", "name": "Calais", "slug": "calais", "street_address": " ", " zip_code": " 62100", " city_name": " ", " region_name": " ", " country_code": " "}, "timestamp": "2017-11-02", "gps": {"lat": "50.9488", "lon": "1.87468"}}, {"link": "https://www.instagram.com/p/Ba_XrI1BVuS", "place": {"id": "1018276768", "name": "Carrousel Du Louvre", "slug": "carrousel-du-louvre", "street_address": " ", " zip_code": " ", " city_name": " Paris", " region_name": " ", " country_code": " FR"}, "timestamp": "2017-11-02", "gps": {"lat": "48.8566969", "lon": "2.3514616"}}, {"link": "https://www.instagram.com/p/BajWIebhK3s", "place": {"id": "1004705555", "name": "Cracu2019h", "slug": "crach", "street_address": " ", " zip_code": " ", " city_name": " Crach", " region_name": " ", " country_code": " FR"}, "timestamp": "2017-10-22", "gps": {"lat": "47.6166941", "lon": "-3.0011326"}}, {"link": "https://www.instagram.com/p/BajS1oCBJaB", "place": {"id": "1004705555", "name": "Cracu2019h", "slug": "crach", "street_address": " ", " zip_code": " ", " city_name": " Crach", " region_name": " ", " country_code": " FR"}, "timestamp": "2017-10-22", "gps": {"lat": "47.6166941", "lon": "-3.0011326"}}, {"link": "https://www.instagram.com/p/BajGY1KB20e", "place": {"id": "235423235", "name": "Vannes", "slug": "vannes-france", "street_address": " ", " zip_code": " ", " city_name": " Vannes", " region_name": " ", " country_code": " FR"}, "timestamp": "2017-10-22", "gps": {"lat": "47.6586772", "lon": "-2.7599079"}}, {"link": "https://www.instagram.com/p/BahFh5HBOLu", "place": {"id": "417963697", "name": "H\u00e9nin-Beaumont", "slug": "henin-beaumont-france", "street_address": " ", " zip_code": " ", " city_name": " H\u00e9nin-Beaumont", " region_name": " ", " country_code": " FR"}, "timestamp": "2017-10-21", "gps": {"lat": "50.4194308", "lon": "2.9469926"}}, {"link": "https://www.instagram.com/p/BacbOF4B2ee", "place": {"id": "358522559", "name": "France T\u00e9l\u00e9visions", "slug": "france-televisions", "street_address": " ", " zip_code": " 75015", " city_name": " Paris", " region_name": " ", " country_code": " FR"}, "timestamp": "2017-10-19", "gps": {"lat": "48.8566969", "lon": "2.3514616"}}, {"link": "https://www.instagram.com/p/BacOAKIhfMW", "place": {"id": "420642699", "name": "France T\u00e9l\u00e9visions", "slug": "france-televisions", "street_address": " 7 esplanade Henri de France", " zip_code": " 75015", " city_name": " Paris", " region_name": " ", " country_code": " FR"}, "timestamp": "2017-10-19", "gps": {"lat": "48.8566969", "lon": "2.3514616"}}, {"link": "https://www.instagram.com/p/BZ_PYuoBEbI", "place": {"id": "236307881", "name": "Carpentras", "slug": "carpentras-france", "street_address": " ", " zip_code": " ", " city_name": " Carpentras", " region_name": " ", " country_code": " FR"}, "timestamp": "2017-10-08", "gps": {"lat": "44.0554997", "lon": "5.048752"}}, {"link": "https://www.instagram.com/p/BZx1BMoBtqX", "place": {"id": "240060767", "name": "Assembl\u00e9e Nationale", "slug": "assemblee-nationale", "street_address": " ", " zip_code": " 75007", " city_name": " Paris", " region_name": " ", " country_code": " FR"}, "timestamp": "2017-10-03", "gps": {"lat": "48.8566969", "lon": "2.3514616"}}, {"link": "https://www.instagram.com/p/BZtbXKcBsHU", "place": {"id": "300202000410857", "name": "Palais des Congr\u00e8s du Futuroscope", "slug": "palais-des-congres-du-futuroscope", "street_address": " 1 avenue Futuroscope ", " zip_code": " 86360", " city_name": " Chasseneuil-Du-Poitou", " region_name": " ", " country_code": " FR"}, "timestamp": "2017-10-01", "gps": {"lat": "46.6505634", "lon": "0.3748389"}}, {"link": "https://www.instagram.com/p/BZtXk-4htmH", "place": {"id": "300202000410857", "name": "Palais des Congr\u00e8s du Futuroscope", "slug": "palais-des-congres-du-futuroscope", "street_address": " 1 avenue Futuroscope ", " zip_code": " 86360", " city_name": " Chasseneuil-Du-Poitou", " region_name": " ", " country_code": " FR"}, "timestamp": "2017-10-01", "gps": {"lat": "46.6505634", "lon": "0.3748389"}}, {"link": "https://www.instagram.com/p/BZtF2fQBQTu", "place": {"id": "300202000410857", "name": "Palais des Congr\u00e8s du Futuroscope", "slug": "palais-des-congres-du-futuroscope", "street_address": " 1 avenue Futuroscope ", " zip_code": " 86360", " city_name": " Chasseneuil-Du-Poitou", " region_name": " ", " country_code": " FR"}, "timestamp": "2017-10-01", "gps": {"lat": "46.6505634", "lon": "0.3748389"}}, {"link": "https://www.instagram.com/p/BZsm17QBjj_", "place": {"id": "300202000410857", "name": "Palais des Congr\u00e8s du Futuroscope", "slug": "palais-des-congres-du-futuroscope", "street_address": " 1 avenue Futuroscope ", " zip_code": " 86360", " city_name": " Chasseneuil-Du-Poitou", " region_name": " ", " country_code": " FR"}, "timestamp": "2017-10-01", "gps": {"lat": "46.6505634", "lon": "0.3748389"}}, {"link": "https://www.instagram.com/p/BZrNlf4Bt4i", "place": {"id": "218518001", "name": "Poitiers", "slug": "poitiers-france", "street_address": " ", " zip_code": " ", " city_name": " Poitiers", " region_name": " ", " country_code": " FR"}, "timestamp": "2017-09-30", "gps": {"lat": "46.5802596", "lon": "0.340196"}}, {"link": "https://www.instagram.com/p/BZqlvJchM3x", "place": {"id": "417963697", "name": "H\u00e9nin-Beaumont", "slug": "henin-beaumont-france", "street_address": " ", " zip_code": " ", " city_name": " H\u00e9nin-Beaumont", " region_name": " ", " country_code": " FR"}, "timestamp": "2017-09-30", "gps": {"lat": "50.4194308", "lon": "2.9469926"}}, {"link": "https://www.instagram.com/p/BZdt1LohEZ_", "place": {"id": "240060767", "name": "Assembl\u00e9e Nationale", "slug": "assemblee-nationale", "street_address": " ", " zip_code": " 75007", " city_name": " Paris", " region_name": " ", " country_code": " FR"}, "timestamp": "2017-09-25", "gps": {"lat": "48.8566969", "lon": "2.3514616"}}, {"link": "https://www.instagram.com/p/BZbdWeTBzdP", "place": {"id": "369399596", "name": "Nord-Pas-de-Calais", "slug": "nord-pas-de-calais-france", "street_address": " ", " zip_code": " ", " city_name": " ", " region_name": " Nord-Pas-de-Calais", " country_code": " FR"}, "timestamp": "2017-09-24", "gps": {"lat": "50.52896905", "lon": "2.4545149091687457"}}, {"link": "https://www.instagram.com/p/BZa8YqvBnio", "place": {"id": "369399596", "name": "Nord-Pas-de-Calais", "slug": "nord-pas-de-calais-france", "street_address": " ", " zip_code": " ", " city_name": " ", " region_name": " Nord-Pas-de-Calais", " country_code": " FR"}, "timestamp": "2017-09-24", "gps": {"lat": "50.52896905", "lon": "2.4545149091687457"}}, {"link": "https://www.instagram.com/p/BZazH6jhrzR", "place": {"id": "274734374", "name": "Oignies", "slug": "oignies", "street_address": " ", " zip_code": " 62590", " city_name": " Oignies", " region_name": " ", " country_code": " FR"}, "timestamp": "2017-09-24", "gps": {"lat": "50.4643", "lon": "2.99387"}}, {"link": "https://www.instagram.com/p/BZZA7k9BTUr", "place": {"id": "213784902", "name": "Toulouse", "slug": "toulouse-france", "street_address": " ", " zip_code": " ", " city_name": " Toulouse", " region_name": " ", " country_code": " FR"}, "timestamp": "2017-09-23", "gps": {"lat": "43.6044622", "lon": "1.4442469"}}, {"link": "https://www.instagram.com/p/BZYKCIFB3j3", "place": {"id": "213784902", "name": "Toulouse", "slug": "toulouse-france", "street_address": " ", " zip_code": " ", " city_name": " Toulouse", " region_name": " ", " country_code": " FR"}, "timestamp": "2017-09-23", "gps": {"lat": "43.6044622", "lon": "1.4442469"}}, {"link": "https://www.instagram.com/p/BZLvVrQBDMV", "place": {"id": "214128032", "name": "Nanterre", "slug": "nanterre-france", "street_address": " ", " zip_code": " ", " city_name": " Nanterre", " region_name": " ", " country_code": " FR"}, "timestamp": "2017-09-18", "gps": {"lat": "48.8924273", "lon": "2.2071267"}}, {"link": "https://www.instagram.com/p/BY3NvplBTrF", "place": {"id": "417963697", "name": "H\u00e9nin-Beaumont", "slug": "henin-beaumont-france", "street_address": " ", " zip_code": " ", " city_name": " H\u00e9nin-Beaumont", " region_name": " ", " country_code": " FR"}, "timestamp": "2017-09-10", "gps": {"lat": "50.4194308", "lon": "2.9469926"}}, {"link": "https://www.instagram.com/p/BY0Xd_JhP45", "place": {"id": "1407671599285228", "name": "Brachay", "slug": "brachay", "street_address": " D13", " zip_code": " 52110", " city_name": " Brachay", " region_name": " ", " country_code": " FR"}, "timestamp": "2017-09-09", "gps": {"lat": "48.3756709", "lon": "5.0281066"}}, {"link": "https://www.instagram.com/p/BYngqpThdia", "place": {"id": "417963697", "name": "H\u00e9nin-Beaumont", "slug": "henin-beaumont-france", "street_address": " ", " zip_code": " ", " city_name": " H\u00e9nin-Beaumont", " region_name": " ", " country_code": " FR"}, "timestamp": "2017-09-04", "gps": {"lat": "50.4194308", "lon": "2.9469926"}}, {"link": "https://www.instagram.com/p/BWkPanvh7M5", "place": {"id": "417963697", "name": "H\u00e9nin-Beaumont", "slug": "henin-beaumont-france", "street_address": " ", " zip_code": " ", " city_name": " H\u00e9nin-Beaumont", " region_name": " ", " country_code": " FR"}, "timestamp": "2017-07-15", "gps": {"lat": "50.4194308", "lon": "2.9469926"}}, {"link": "https://www.instagram.com/p/BWiwk3tB4ch", "place": {"id": "417963697", "name": "H\u00e9nin-Beaumont", "slug": "henin-beaumont-france", "street_address": " ", " zip_code": " ", " city_name": " H\u00e9nin-Beaumont", " region_name": " ", " country_code": " FR"}, "timestamp": "2017-07-14", "gps": {"lat": "50.4194308", "lon": "2.9469926"}}, {"link": "https://www.instagram.com/p/BWhkdgUh3gr", "place": {"id": "417963697", "name": "H\u00e9nin-Beaumont", "slug": "henin-beaumont-france", "street_address": " ", " zip_code": " ", " city_name": " H\u00e9nin-Beaumont", " region_name": " ", " country_code": " FR"}, "timestamp": "2017-07-14", "gps": {"lat": "50.4194308", "lon": "2.9469926"}}, {"link": "https://www.instagram.com/p/BWhZzKJhDXn", "place": {"id": "417963697", "name": "H\u00e9nin-Beaumont", "slug": "henin-beaumont-france", "street_address": " ", " zip_code": " ", " city_name": " H\u00e9nin-Beaumont", " region_name": " ", " country_code": " FR"}, "timestamp": "2017-07-14", "gps": {"lat": "50.4194308", "lon": "2.9469926"}}, {"link": "https://www.instagram.com/p/BVecYiGBjI-", "place": {"id": "417963697", "name": "H\u00e9nin-Beaumont", "slug": "henin-beaumont-france", "street_address": " ", " zip_code": " ", " city_name": " H\u00e9nin-Beaumont", " region_name": " ", " country_code": " FR"}, "timestamp": "2017-06-18", "gps": {"lat": "50.4194308", "lon": "2.9469926"}}, {"link": "https://www.instagram.com/p/BVZgENNhJ-I", "place": {"id": "417963697", "name": "H\u00e9nin-Beaumont", "slug": "henin-beaumont-france", "street_address": " ", " zip_code": " ", " city_name": " H\u00e9nin-Beaumont", " region_name": " ", " country_code": " FR"}, "timestamp": "2017-06-16", "gps": {"lat": "50.4194308", "lon": "2.9469926"}}, {"link": "https://www.instagram.com/p/BVXPDjXBsmq", "place": {"id": "369399596", "name": "Nord-Pas-de-Calais", "slug": "nord-pas-de-calais-france", "street_address": " ", " zip_code": " ", " city_name": " ", " region_name": " Nord-Pas-de-Calais", " country_code": " FR"}, "timestamp": "2017-06-15", "gps": {"lat": "50.52896905", "lon": "2.4545149091687457"}}, {"link": "https://www.instagram.com/p/BVW0khJB2D0", "place": {"id": "253620621", "name": "Libercourt", "slug": "libercourt", "street_address": " ", " zip_code": " 62820", " city_name": " Libercourt", " region_name": " ", " country_code": " FR"}, "timestamp": "2017-06-15", "gps": {"lat": "50.4802102", "lon": "3.0105187"}}, {"link": "https://www.instagram.com/p/BVU3vZ-hWpK", "place": {"id": "258946874", "name": "Noeux-les-Mines", "slug": "noeux-les-mines", "street_address": " ", " zip_code": " ", " city_name": " Noeux-les-Mines", " region_name": " ", " country_code": " FR"}, "timestamp": "2017-06-14", "gps": {"lat": "50.4754", "lon": "2.6621899"}}, {"link": "https://www.instagram.com/p/BVUTCEpglCv", "place": {"id": "239639439", "name": "Wingles", "slug": "wingles", "street_address": " ", " zip_code": " 62410", " city_name": " Wingles", " region_name": " ", " country_code": " FR"}, "timestamp": "2017-06-14", "gps": {"lat": "50.4953", "lon": "2.85813"}}, {"link": "https://www.instagram.com/p/BVSWKEvBXNM", "place": {"id": "226543762", "name": "Soissons", "slug": "soissons-france", "street_address": " ", " zip_code": " ", " city_name": " Soissons", " region_name": " ", " country_code": " FR"}, "timestamp": "2017-06-13", "gps": {"lat": "49.3837621", "lon": "3.327613"}}, {"link": "https://www.instagram.com/p/BVR0DD7B4n3", "place": {"id": "417963697", "name": "H\u00e9nin-Beaumont", "slug": "henin-beaumont-france", "street_address": " ", " zip_code": " ", " city_name": " H\u00e9nin-Beaumont", " region_name": " ", " country_code": " FR"}, "timestamp": "2017-06-13", "gps": {"lat": "50.4194308", "lon": "2.9469926"}}, {"link": "https://www.instagram.com/p/BVRtyGNB4Et", "place": {"id": "274734374", "name": "Oignies", "slug": "oignies", "street_address": " ", " zip_code": " 62590", " city_name": " Oignies", " region_name": " ", " country_code": " FR"}, "timestamp": "2017-06-13", "gps": {"lat": "50.4643", "lon": "2.99387"}}, {"link": "https://www.instagram.com/p/BVPSEYlB6Zk", "place": {"id": "308939483", "name": "Rouvroy", "slug": "rouvroy-nord-pas-de-calais-france", "street_address": " ", " zip_code": " ", " city_name": " Rouvroy", " region_name": " ", " country_code": " FR"}, "timestamp": "2017-06-12", "gps": {"lat": "50.393427", "lon": "2.9036734"}}, {"link": "https://www.instagram.com/p/BVMfXL_BDOG", "place": {"id": "417963697", "name": "H\u00e9nin-Beaumont", "slug": "henin-beaumont-france", "street_address": " ", " zip_code": " ", " city_name": " H\u00e9nin-Beaumont", " region_name": " ", " country_code": " FR"}, "timestamp": "2017-06-11", "gps": {"lat": "50.4194308", "lon": "2.9469926"}}, {"link": "https://www.instagram.com/p/BVHphowhaHZ", "place": {"id": "417963697", "name": "H\u00e9nin-Beaumont", "slug": "henin-beaumont-france", "street_address": " ", " zip_code": " ", " city_name": " H\u00e9nin-Beaumont", " region_name": " ", " country_code": " FR"}, "timestamp": "2017-06-09", "gps": {"lat": "50.4194308", "lon": "2.9469926"}}, {"link": "https://www.instagram.com/p/BVF8S2fhaW_", "place": {"id": "218543264", "name": "Calais", "slug": "calais-france", "street_address": " ", " zip_code": " ", " city_name": " Calais", " region_name": " ", " country_code": " FR"}, "timestamp": "2017-06-08", "gps": {"lat": "50.9488", "lon": "1.87468"}}, {"link": "https://www.instagram.com/p/BVE7s0sh9ui", "place": {"id": "285726016", "name": "Bully-les-Mines", "slug": "bully-les-mines", "street_address": " ", " zip_code": " 62160", " city_name": " Bully-les-Mines", " region_name": " ", " country_code": " FR"}, "timestamp": "2017-06-08", "gps": {"lat": "50.4464", "lon": "2.71989"}}, {"link": "https://www.instagram.com/p/BU9S0BNAn4b", "place": {"id": "244474974", "name": "Li\u00e9vin", "slug": "lievin", "street_address": " ", " zip_code": " 62800", " city_name": " Li\u00e9vin", " region_name": " ", " country_code": " FR"}, "timestamp": "2017-06-05", "gps": {"lat": "50.4245", "lon": "2.7738"}}, {"link": "https://www.instagram.com/p/BU4UCdCgRDd", "place": {"id": "417963697", "name": "H\u00e9nin-Beaumont", "slug": "henin-beaumont-france", "street_address": " ", " zip_code": " ", " city_name": " H\u00e9nin-Beaumont", " region_name": " ", " country_code": " FR"}, "timestamp": "2017-06-03", "gps": {"lat": "50.4194308", "lon": "2.9469926"}}, {"link": "https://www.instagram.com/p/BU4DcrdgSZI", "place": {"id": "316098043", "name": "Drocourt", "slug": "drocourt-nord-pas-de-calais-france", "street_address": " ", " zip_code": " ", " city_name": " Drocourt", " region_name": " ", " country_code": " FR"}, "timestamp": "2017-06-03", "gps": {"lat": "50.3910229", "lon": "2.9244641"}}, {"link": "https://www.instagram.com/p/BU2PHm7Ac-K", "place": {"id": "417963697", "name": "H\u00e9nin-Beaumont", "slug": "henin-beaumont-france", "street_address": " ", " zip_code": " ", " city_name": " H\u00e9nin-Beaumont", " region_name": " ", " country_code": " FR"}, "timestamp": "2017-06-02", "gps": {"lat": "50.4194308", "lon": "2.9469926"}}, {"link": "https://www.instagram.com/p/BU1VRaSAh1m", "place": {"id": "417963697", "name": "H\u00e9nin-Beaumont", "slug": "henin-beaumont-france", "street_address": " ", " zip_code": " ", " city_name": " H\u00e9nin-Beaumont", " region_name": " ", " country_code": " FR"}, "timestamp": "2017-06-02", "gps": {"lat": "50.4194308", "lon": "2.9469926"}}, {"link": "https://www.instagram.com/p/BUwYgqhAp-m", "place": {"id": "257007701", "name": "Courri\u00e8res", "slug": "courrieres", "street_address": " ", " zip_code": " 62710", " city_name": " Courri\u00e8res", " region_name": " ", " country_code": " FR"}, "timestamp": "2017-05-31", "gps": {"lat": "50.4521", "lon": "2.94621"}}, {"link": "https://www.instagram.com/p/BUwIloGAhGO", "place": {"id": "325421081", "name": "\u00c9vin-Malmaison", "slug": "evin-malmaison", "street_address": " ", " zip_code": " 62141", " city_name": " \u00c9vin-Malmaison", " region_name": " ", " country_code": " FR"}, "timestamp": "2017-05-31", "gps": {"lat": "50.4372552", "lon": "3.0325007"}}, {"link": "https://www.instagram.com/p/BUuLL7LgoFl", "place": {"id": "228020952", "name": "Lens", "slug": "lens-france", "street_address": " ", " zip_code": " ", " city_name": " Lens", " region_name": " ", " country_code": " FR"}, "timestamp": "2017-05-30", "gps": {"lat": "50.4291723", "lon": "2.8319805"}}, {"link": "https://www.instagram.com/p/BUtoEh3AlbE", "place": {"id": "417963697", "name": "H\u00e9nin-Beaumont", "slug": "henin-beaumont-france", "street_address": " ", " zip_code": " ", " city_name": " H\u00e9nin-Beaumont", " region_name": " ", " country_code": " FR"}, "timestamp": "2017-05-30", "gps": {"lat": "50.4194308", "lon": "2.9469926"}}, {"link": "https://www.instagram.com/p/BUon4G5g_iT", "place": {"id": "1035405163", "name": "M\u00e9ricourt", "slug": "mericourt", "street_address": " ", " zip_code": " 62680", " city_name": " M\u00e9ricourt", " region_name": " ", " country_code": " FR"}, "timestamp": "2017-05-28", "gps": {"lat": "50.4015803", "lon": "2.8664217"}}, {"link": "https://www.instagram.com/p/BUmdTt2gva0", "place": {"id": "274734374", "name": "Oignies", "slug": "oignies", "street_address": " ", " zip_code": " 62590", " city_name": " Oignies", " region_name": " ", " country_code": " FR"}, "timestamp": "2017-05-27", "gps": {"lat": "50.4643", "lon": "2.99387"}}, {"link": "https://www.instagram.com/p/BUkIZczg8HI", "place": {"id": "417963697", "name": "H\u00e9nin-Beaumont", "slug": "henin-beaumont-france", "street_address": " ", " zip_code": " ", " city_name": " H\u00e9nin-Beaumont", " region_name": " ", " country_code": " FR"}, "timestamp": "2017-05-26", "gps": {"lat": "50.4194308", "lon": "2.9469926"}}, {"link": "https://www.instagram.com/p/BUjVukVghyE", "place": {"id": "417963697", "name": "H\u00e9nin-Beaumont", "slug": "henin-beaumont-france", "street_address": " ", " zip_code": " ", " city_name": " H\u00e9nin-Beaumont", " region_name": " ", " country_code": " FR"}, "timestamp": "2017-05-26", "gps": {"lat": "50.4194308", "lon": "2.9469926"}}, {"link": "https://www.instagram.com/p/BUbqBIVg_Uw", "place": {"id": "274734374", "name": "Oignies", "slug": "oignies", "street_address": " ", " zip_code": " 62590", " city_name": " Oignies", " region_name": " ", " country_code": " FR"}, "timestamp": "2017-05-23", "gps": {"lat": "50.4643", "lon": "2.99387"}}, {"link": "https://www.instagram.com/p/BUXBVkqg85i", "place": {"id": "25010948", "name": "Noyelles-Godault", "slug": "noyelles-godault", "street_address": " ", " zip_code": " 62950", " city_name": " Noyelles-Godault", " region_name": " ", " country_code": " FR"}, "timestamp": "2017-05-21", "gps": {"lat": "50.419769", "lon": "2.996459"}}, {"link": "https://www.instagram.com/p/BUWQjhZgmJH", "place": {"id": "417963697", "name": "H\u00e9nin-Beaumont", "slug": "henin-beaumont-france", "street_address": " ", " zip_code": " ", " city_name": " H\u00e9nin-Beaumont", " region_name": " ", " country_code": " FR"}, "timestamp": "2017-05-21", "gps": {"lat": "50.4194308", "lon": "2.9469926"}}, {"link": "https://www.instagram.com/p/BUUO7UFgvik", "place": {"id": "257007701", "name": "Courri\u00e8res", "slug": "courrieres", "street_address": " ", " zip_code": " 62710", " city_name": " Courri\u00e8res", " region_name": " ", " country_code": " FR"}, "timestamp": "2017-05-20", "gps": {"lat": "50.4521", "lon": "2.94621"}}, {"link": "https://www.instagram.com/p/BUT_dWIANSG", "place": {"id": "278127990", "name": "M\u00e9ricourt", "slug": "mericourt-nord-pas-de-calais-france", "street_address": " ", " zip_code": " ", " city_name": " M\u00e9ricourt", " region_name": " ", " country_code": " FR"}, "timestamp": "2017-05-20", "gps": {"lat": "50.4015803", "lon": "2.8664217"}}, {"link": "https://www.instagram.com/p/BUSQytzg8pN", "place": {"id": "417963697", "name": "H\u00e9nin-Beaumont", "slug": "henin-beaumont-france", "street_address": " ", " zip_code": " ", " city_name": " H\u00e9nin-Beaumont", " region_name": " ", " country_code": " FR"}, "timestamp": "2017-05-19", "gps": {"lat": "50.4194308", "lon": "2.9469926"}}, {"link": "https://www.instagram.com/p/BUSFKF8Aj3P", "place": {"id": "417963697", "name": "H\u00e9nin-Beaumont", "slug": "henin-beaumont-france", "street_address": " ", " zip_code": " ", " city_name": " H\u00e9nin-Beaumont", " region_name": " ", " country_code": " FR"}, "timestamp": "2017-05-19", "gps": {"lat": "50.4194308", "lon": "2.9469926"}}, {"link": "https://www.instagram.com/p/BURXZ05AUzk", "place": {"id": "417963697", "name": "H\u00e9nin-Beaumont", "slug": "henin-beaumont-france", "street_address": " ", " zip_code": " ", " city_name": " H\u00e9nin-Beaumont", " region_name": " ", " country_code": " FR"}, "timestamp": "2017-05-19", "gps": {"lat": "50.4194308", "lon": "2.9469926"}}, {"link": "https://www.instagram.com/p/BURRAKhg188", "place": {"id": "417963697", "name": "H\u00e9nin-Beaumont", "slug": "henin-beaumont-france", "street_address": " ", " zip_code": " ", " city_name": " H\u00e9nin-Beaumont", " region_name": " ", " country_code": " FR"}, "timestamp": "2017-05-19", "gps": {"lat": "50.4194308", "lon": "2.9469926"}}, {"link": "https://www.instagram.com/p/BTzT3e8AW-n", "place": {"id": "6889842", "name": "Paris", "slug": "paris-france", "street_address": " ", " zip_code": " ", " city_name": " Paris", " region_name": " ", " country_code": " FR"}, "timestamp": "2017-05-07", "gps": {"lat": "48.8566969", "lon": "2.3514616"}}, {"link": "https://www.instagram.com/p/BTyTc_Rgh3N", "place": {"id": "417963697", "name": "H\u00e9nin-Beaumont", "slug": "henin-beaumont-france", "street_address": " ", " zip_code": " ", " city_name": " H\u00e9nin-Beaumont", " region_name": " ", " country_code": " FR"}, "timestamp": "2017-05-07", "gps": {"lat": "50.4194308", "lon": "2.9469926"}}, {"link": "https://www.instagram.com/p/BTtquV_g9jL", "place": {"id": "214427862", "name": "Reims", "slug": "reims-france", "street_address": " ", " zip_code": " ", " city_name": " Reims", " region_name": " ", " country_code": " FR"}, "timestamp": "2017-05-05", "gps": {"lat": "49.2577886", "lon": "4.031926"}}, {"link": "https://www.instagram.com/p/BTrqBdYg8R1", "place": {"id": "1007453363", "name": "Ennemain", "slug": "ennemain", "street_address": " ", " zip_code": " 80200", " city_name": " Ennemain", " region_name": " ", " country_code": " FR"}, "timestamp": "2017-05-04", "gps": {"lat": "49.8465018", "lon": "2.9663519"}}, {"link": "https://www.instagram.com/p/BTq-LRJgEtx", "place": {"id": "237858017", "name": "Dol-de-Bretagne", "slug": "dol-de-bretagne", "street_address": " ", " zip_code": " 35120", " city_name": " Dol-de-Bretagne", " region_name": " ", " country_code": " FR"}, "timestamp": "2017-05-04", "gps": {"lat": "48.5489772", "lon": "-1.7521005"}}, {"link": "https://www.instagram.com/p/BTq1ympA4W9", "place": {"id": "237858017", "name": "Dol-de-Bretagne", "slug": "dol-de-bretagne", "street_address": " ", " zip_code": " 35120", " city_name": " Dol-de-Bretagne", " region_name": " ", " country_code": " FR"}, "timestamp": "2017-05-04", "gps": {"lat": "48.5489772", "lon": "-1.7521005"}}, {"link": "https://www.instagram.com/p/BTjGNApgyfk", "place": {"id": "229813567", "name": "Parc Des Exposition De Villepinte Paris Nord II", "slug": "parc-des-exposition-de-villepinte-paris-nord-ii", "street_address": " ", " zip_code": " 93420", " city_name": " Paris", " region_name": " ", " country_code": " FR"}, "timestamp": "2017-05-01", "gps": {"lat": "48.8566969", "lon": "2.3514616"}}, {"link": "https://www.instagram.com/p/BTjETYFABdc", "place": {"id": "462361035", "name": "Parc des Expositions de Villepinte", "slug": "parc-des-expositions-de-villepinte", "street_address": " ", " zip_code": " ", " city_name": " Paris", " region_name": " ", " country_code": " FR"}, "timestamp": "2017-05-01", "gps": {"lat": "48.8566969", "lon": "2.3514616"}}, {"link": "https://www.instagram.com/p/BTi895yAnqN", "place": {"id": "462361035", "name": "Parc des Expositions de Villepinte", "slug": "parc-des-expositions-de-villepinte", "street_address": " ", " zip_code": " ", " city_name": " Paris", " region_name": " ", " country_code": " FR"}, "timestamp": "2017-05-01", "gps": {"lat": "48.8566969", "lon": "2.3514616"}}, {"link": "https://www.instagram.com/p/BTi1mlogAZQ", "place": {"id": "229813567", "name": "Parc Des Exposition De Villepinte Paris Nord II", "slug": "parc-des-exposition-de-villepinte-paris-nord-ii", "street_address": " ", " zip_code": " 93420", " city_name": " Paris", " region_name": " ", " country_code": " FR"}, "timestamp": "2017-05-01", "gps": {"lat": "48.8566969", "lon": "2.3514616"}}, {"link": "https://www.instagram.com/p/BTeYHBmAjln", "place": {"id": "6889842", "name": "Paris", "slug": "paris-france", "street_address": " ", " zip_code": " ", " city_name": " Paris", " region_name": " ", " country_code": " FR"}, "timestamp": "2017-04-29", "gps": {"lat": "48.8566969", "lon": "2.3514616"}}, {"link": "https://www.instagram.com/p/BTZtc83gcgb", "place": {"id": "129643084", "name": "Nice", "slug": "nice-france", "street_address": " ", " zip_code": " ", " city_name": " Nice", " region_name": " ", " country_code": " FR"}, "timestamp": "2017-04-27", "gps": {"lat": "43.7009358", "lon": "7.2683912"}}, {"link": "https://www.instagram.com/p/BTZjbcbg2EJ", "place": {"id": "557811819", "name": "Palais Nikaia", "slug": "palais-nikaia", "street_address": " 163 boulevard du Mercantour", " zip_code": " 06200", " city_name": " Nice", " region_name": " ", " country_code": " FR"}, "timestamp": "2017-04-27", "gps": {"lat": "43.7009358", "lon": "7.2683912"}}, {"link": "https://www.instagram.com/p/BTYoyZYg-tr", "place": {"id": "221860028", "name": "Le Grau-du-Roi", "slug": "le-grau-du-roi", "street_address": " ", " zip_code": " 30240", " city_name": " Le Grau-du-Roi", " region_name": " ", " country_code": " FR"}, "timestamp": "2017-04-27", "gps": {"lat": "43.5361048", "lon": "4.1360255"}}, {"link": "https://www.instagram.com/p/BTYMdb2gSk_", "place": {"id": "221860028", "name": "Le Grau-du-Roi", "slug": "le-grau-du-roi", "street_address": " ", " zip_code": " 30240", " city_name": " Le Grau-du-Roi", " region_name": " ", " country_code": " FR"}, "timestamp": "2017-04-27", "gps": {"lat": "43.5361048", "lon": "4.1360255"}}, {"link": "https://www.instagram.com/p/BTWNff3gdai", "place": {"id": "216424455", "name": "Amiens", "slug": "amiens-france", "street_address": " ", " zip_code": " ", " city_name": " Amiens", " region_name": " ", " country_code": " FR"}, "timestamp": "2017-04-26", "gps": {"lat": "49.8941708", "lon": "2.2956951"}}, {"link": "https://www.instagram.com/p/BTTCpdzAbI2", "place": {"id": "243069256", "name": "Rungis", "slug": "rungis-france", "street_address": " ", " zip_code": " ", " city_name": " Rungis", " region_name": " ", " country_code": " FR"}, "timestamp": "2017-04-25", "gps": {"lat": "48.7484048", "lon": "2.3472665"}}, {"link": "https://www.instagram.com/p/BTQ6CEigbl-", "place": {"id": "308939483", "name": "Rouvroy", "slug": "rouvroy-nord-pas-de-calais-france", "street_address": " ", " zip_code": " ", " city_name": " Rouvroy", " region_name": " ", " country_code": " FR"}, "timestamp": "2017-04-24", "gps": {"lat": "50.393427", "lon": "2.9036734"}}, {"link": "https://www.instagram.com/p/BTPaBr4A3UQ", "place": {"id": "417963697", "name": "H\u00e9nin-Beaumont", "slug": "henin-beaumont-france", "street_address": " ", " zip_code": " ", " city_name": " H\u00e9nin-Beaumont", " region_name": " ", " country_code": " FR"}, "timestamp": "2017-04-23", "gps": {"lat": "50.4194308", "lon": "2.9469926"}}, {"link": "https://www.instagram.com/p/BTPU87Eg7N4", "place": {"id": "417963697", "name": "H\u00e9nin-Beaumont", "slug": "henin-beaumont-france", "street_address": " ", " zip_code": " ", " city_name": " H\u00e9nin-Beaumont", " region_name": " ", " country_code": " FR"}, "timestamp": "2017-04-23", "gps": {"lat": "50.4194308", "lon": "2.9469926"}}, {"link": "https://www.instagram.com/p/BTOXWoPgXc_", "place": {"id": "417963697", "name": "H\u00e9nin-Beaumont", "slug": "henin-beaumont-france", "street_address": " ", " zip_code": " ", " city_name": " H\u00e9nin-Beaumont", " region_name": " ", " country_code": " FR"}, "timestamp": "2017-04-23", "gps": {"lat": "50.4194308", "lon": "2.9469926"}}, {"link": "https://www.instagram.com/p/BTGO6xDAsWJ", "place": {"id": "101977618", "name": "Marseille", "slug": "marseille-france", "street_address": " ", " zip_code": " ", " city_name": " Marseille", " region_name": " ", " country_code": " FR"}, "timestamp": "2017-04-20", "gps": {"lat": "43.2961743", "lon": "5.3699525"}}, {"link": "https://www.instagram.com/p/BTFL5zlAKvY", "place": {"id": "240773412", "name": "Le D\u00f4me de Marseille", "slug": "le-dome-de-marseille", "street_address": " ", " zip_code": " 13004", " city_name": " Marseille", " region_name": " ", " country_code": " FR"}, "timestamp": "2017-04-19", "gps": {"lat": "43.2961743", "lon": "5.3699525"}}, {"link": "https://www.instagram.com/p/BTFK0LZAoHp", "place": {"id": "101977618", "name": "Marseille", "slug": "marseille-france", "street_address": " ", " zip_code": " ", " city_name": " Marseille", " region_name": " ", " country_code": " FR"}, "timestamp": "2017-04-19", "gps": {"lat": "43.2961743", "lon": "5.3699525"}}, {"link": "https://www.instagram.com/p/BTFCCMVArdF", "place": {"id": "101977618", "name": "Marseille", "slug": "marseille-france", "street_address": " ", " zip_code": " ", " city_name": " Marseille", " region_name": " ", " country_code": " FR"}, "timestamp": "2017-04-19", "gps": {"lat": "43.2961743", "lon": "5.3699525"}}, {"link": "https://www.instagram.com/p/BTAJok3ANGz", "place": {"id": "6889842", "name": "Paris", "slug": "paris-france", "street_address": " ", " zip_code": " ", " city_name": " Paris", " region_name": " ", " country_code": " FR"}, "timestamp": "2017-04-17", "gps": {"lat": "48.8566969", "lon": "2.3514616"}}, {"link": "https://www.instagram.com/p/BS_yU_qgXYQ", "place": {"id": "235503836910676", "name": "Le Z\u00e9nith Paris - La Villette", "slug": "le-zenith-paris-la-villette", "street_address": " 211 Avenue Jean Jaur\u00e8s 75019 Paris", " zip_code": " ", " city_name": " Paris", " region_name": " ", " country_code": " FR"}, "timestamp": "2017-04-17", "gps": {"lat": "48.8566969", "lon": "2.3514616"}}, {"link": "https://www.instagram.com/p/BS6N6jfAhBe", "place": {"id": "214245230", "name": "Perpignan", "slug": "perpignan-france", "street_address": " ", " zip_code": " ", " city_name": " Perpignan", " region_name": " ", " country_code": " FR"}, "timestamp": "2017-04-15", "gps": {"lat": "42.6985304", "lon": "2.8953121"}}, {"link": "https://www.instagram.com/p/BS6At0DgVAC", "place": {"id": "214245230", "name": "Perpignan", "slug": "perpignan-france", "street_address": " ", " zip_code": " ", " city_name": " Perpignan", " region_name": " ", " country_code": " FR"}, "timestamp": "2017-04-15", "gps": {"lat": "42.6985304", "lon": "2.8953121"}}, {"link": "https://www.instagram.com/p/BS1gUecgtfm", "place": {"id": "1035542932", "name": "Alto Vienne", "slug": "alto-vienne", "street_address": " 11 rue Fran\u00e7ois Ch\u00e9nieux", " zip_code": " 87000", " city_name": " Limoges", " region_name": " ", " country_code": " FR"}, "timestamp": "2017-04-13", "gps": {"lat": "45.8354243", "lon": "1.2644847"}}, {"link": "https://www.instagram.com/p/BStk4L-ATJh", "place": {"id": "220103499", "name": "Ajaccio", "slug": "ajaccio", "street_address": " ", " zip_code": " 20000", " city_name": " Ajaccio", " region_name": " ", " country_code": " FR"}, "timestamp": "2017-04-10", "gps": {"lat": "41.9263991", "lon": "8.7376029"}}, {"link": "https://www.instagram.com/p/BSlceBTAHnN", "place": {"id": "6889842", "name": "Paris", "slug": "paris-france", "street_address": " ", " zip_code": " ", " city_name": " Paris", " region_name": " ", " country_code": " FR"}, "timestamp": "2017-04-07", "gps": {"lat": "48.8566969", "lon": "2.3514616"}}, {"link": "https://www.instagram.com/p/BSiWY_-gaK8", "place": {"id": "13037419", "name": "Monswiller", "slug": "monswiller", "street_address": " ", " zip_code": " 67700", " city_name": " Monswiller", " region_name": " ", " country_code": " FR"}, "timestamp": "2017-04-06", "gps": {"lat": "48.7551151", "lon": "7.3790239"}}, {"link": "https://www.instagram.com/p/BSgWOSmgVtU", "place": {"id": "219322840", "name": "Parlement Europ\u00e9en - Strasbourg", "slug": "parlement-europeen-strasbourg", "street_address": " All\u00e9e du Printemps", " zip_code": " 67070", " city_name": " Strasbourg", " region_name": " ", " country_code": " FR"}, "timestamp": "2017-04-05", "gps": {"lat": "48.584614", "lon": "7.7507127"}}, {"link": "https://www.instagram.com/p/BSbpWCgAuzN", "place": {"id": "255518157", "name": "Jaunay-Clan", "slug": "jaunay-clan-poitou-charentes-france", "street_address": " ", " zip_code": " ", " city_name": " Jaunay-Clan", " region_name": " ", " country_code": " FR"}, "timestamp": "2017-04-03", "gps": {"lat": "46.6945306", "lon": "0.36249102317505283"}}, {"link": "https://www.instagram.com/p/BSY1MAIgVyh", "place": {"id": "213097372", "name": "Bordeaux", "slug": "bordeaux-france", "street_address": " ", " zip_code": " ", " city_name": " Bordeaux", " region_name": " ", " country_code": " FR"}, "timestamp": "2017-04-02", "gps": {"lat": "44.841225", "lon": "-0.5800364"}}, {"link": "https://www.instagram.com/p/BSYs7HRAiSr", "place": {"id": "213097372", "name": "Bordeaux", "slug": "bordeaux-france", "street_address": " ", " zip_code": " ", " city_name": " Bordeaux", " region_name": " ", " country_code": " FR"}, "timestamp": "2017-04-02", "gps": {"lat": "44.841225", "lon": "-0.5800364"}}, {"link": "https://www.instagram.com/p/BSYqRUdgDBd", "place": {"id": "213097372", "name": "Bordeaux", "slug": "bordeaux-france", "street_address": " ", " zip_code": " ", " city_name": " Bordeaux", " region_name": " ", " country_code": " FR"}, "timestamp": "2017-04-02", "gps": {"lat": "44.841225", "lon": "-0.5800364"}}, {"link": "https://www.instagram.com/p/BSYgf-2A9ag", "place": {"id": "213097372", "name": "Bordeaux", "slug": "bordeaux-france", "street_address": " ", " zip_code": " ", " city_name": " Bordeaux", " region_name": " ", " country_code": " FR"}, "timestamp": "2017-04-02", "gps": {"lat": "44.841225", "lon": "-0.5800364"}}, {"link": "https://www.instagram.com/p/BSTwHHQA8Ew", "place": {"id": "254265173", "name": "Erquy", "slug": "erquy", "street_address": " ", " zip_code": " 22430", " city_name": " Erquy", " region_name": " ", " country_code": " FR"}, "timestamp": "2017-03-31", "gps": {"lat": "48.6286582", "lon": "-2.4642309"}}, {"link": "https://www.instagram.com/p/BSTD5S_gwwh", "place": {"id": "215248142", "name": "Concarneau", "slug": "concarneau", "street_address": " ", " zip_code": " 29900", " city_name": " Concarneau", " region_name": " ", " country_code": " FR"}, "timestamp": "2017-03-31", "gps": {"lat": "47.8757017", "lon": "-3.9223889"}}, {"link": "https://www.instagram.com/p/BSRc0URAsiE", "place": {"id": "300924381", "name": "La Trinit\u00e9-Porho\u00ebt", "slug": "la-trinite-porhoet", "street_address": " ", " zip_code": " 56490", " city_name": " La Trinit\u00e9-Porho\u00ebt", " region_name": " ", " country_code": " FR"}, "timestamp": "2017-03-30", "gps": {"lat": "48.0980252", "lon": "-2.5477426"}}, {"link": "https://www.instagram.com/p/BSRAt1fAyZm", "place": {"id": "278467912", "name": "Pordic", "slug": "pordic", "street_address": " ", " zip_code": " 22590", " city_name": " Pordic", " region_name": " ", " country_code": " FR"}, "timestamp": "2017-03-30", "gps": {"lat": "48.56955725", "lon": "-2.8189686278528208"}}, {"link": "https://www.instagram.com/p/BSJkdMvgg9L", "place": {"id": "9058186", "name": "Les Sables-d'Olonne", "slug": "les-sables-dolonne", "street_address": " ", " zip_code": " 85100", " city_name": " Les Sables-d'Olonne", " region_name": " ", " country_code": " FR"}, "timestamp": "2017-03-27", "gps": {"lat": "46.5002031", "lon": "-1.7924568493808075"}}, {"link": "https://www.instagram.com/p/BSIqhxOAS_V", "place": {"id": "17326249", "name": "Moscow", "slug": "moscow-russia", "street_address": " ", " zip_code": " ", " city_name": " Moscow", " region_name": " ", " country_code": " RU"}, "timestamp": "2017-03-27", "gps": {"lat": "55.7504461", "lon": "37.6174943"}}, {"link": "https://www.instagram.com/p/BSGuJHDgdJM", "place": {"id": "215780716", "name": "Lille", "slug": "lille-france", "street_address": " ", " zip_code": " ", " city_name": " Lille", " region_name": " ", " country_code": " FR"}, "timestamp": "2017-03-26", "gps": {"lat": "50.6365654", "lon": "3.0635282"}}, {"link": "https://www.instagram.com/p/BSGprd8gxct", "place": {"id": "215780716", "name": "Lille", "slug": "lille-france", "street_address": " ", " zip_code": " ", " city_name": " Lille", " region_name": " ", " country_code": " FR"}, "timestamp": "2017-03-26", "gps": {"lat": "50.6365654", "lon": "3.0635282"}}, {"link": "https://www.instagram.com/p/BSGjj3IAiG4", "place": {"id": "215780716", "name": "Lille", "slug": "lille-france", "street_address": " ", " zip_code": " ", " city_name": " Lille", " region_name": " ", " country_code": " FR"}, "timestamp": "2017-03-26", "gps": {"lat": "50.6365654", "lon": "3.0635282"}}, {"link": "https://www.instagram.com/p/BSBfRrogScf", "place": {"id": "17326249", "name": "Moscow", "slug": "moscow-russia", "street_address": " ", " zip_code": " ", " city_name": " Moscow", " region_name": " ", " country_code": " RU"}, "timestamp": "2017-03-24", "gps": {"lat": "55.7504461", "lon": "37.6174943"}}, {"link": "https://www.instagram.com/p/BR33OiMgpCe", "place": {"id": "243017157", "name": "Tour TF1", "slug": "tour-tf1", "street_address": " 1", " zip_code": " ", " city_name": " Boulogne-Billancourt", " region_name": " ", " country_code": " FR"}, "timestamp": "2017-03-20", "gps": {"lat": "48.8356649", "lon": "2.240206"}}, {"link": "https://www.instagram.com/p/BRyQOWRAmsy", "place": {"id": "39507752", "name": "Metz", "slug": "metz-france", "street_address": " ", " zip_code": " ", " city_name": " Metz", " region_name": " ", " country_code": " FR"}, "timestamp": "2017-03-18", "gps": {"lat": "49.1196964", "lon": "6.1763552"}}, {"link": "https://www.instagram.com/p/BRyG90Eg4XD", "place": {"id": "39507752", "name": "Metz", "slug": "metz-france", "street_address": " ", " zip_code": " ", " city_name": " Metz", " region_name": " ", " country_code": " FR"}, "timestamp": "2017-03-18", "gps": {"lat": "49.1196964", "lon": "6.1763552"}}, {"link": "https://www.instagram.com/p/BRq6nDpAagA", "place": {"id": "790587784", "name": "Saint-Rapha\u00ebl", "slug": "saint-raphael-var", "street_address": " ", " zip_code": " 83700 and 83530", " city_name": " ", " region_name": " ", " country_code": " "}, "timestamp": "2017-03-15", "gps": {"lat": "45.3043079", "lon": "1.0747165"}}, {"link": "https://www.instagram.com/p/BRlu7s1Ae2Q", "place": {"id": "6889842", "name": "Paris", "slug": "paris-france", "street_address": " ", " zip_code": " ", " city_name": " Paris", " region_name": " ", " country_code": " FR"}, "timestamp": "2017-03-13", "gps": {"lat": "48.8566969", "lon": "2.3514616"}}, {"link": "https://www.instagram.com/p/BRgYqCLgv-X", "place": {"id": "1630842", "name": "Ch\u00e2teauroux", "slug": "chateauroux", "street_address": " ", " zip_code": " 36000", " city_name": " Ch\u00e2teauroux", " region_name": " ", " country_code": " FR"}, "timestamp": "2017-03-11", "gps": {"lat": "46.8047", "lon": "1.6957099"}}, {"link": "https://www.instagram.com/p/BRgYpfdgDMo", "place": {"id": "1630842", "name": "Ch\u00e2teauroux", "slug": "chateauroux", "street_address": " ", " zip_code": " 36000", " city_name": " Ch\u00e2teauroux", " region_name": " ", " country_code": " FR"}, "timestamp": "2017-03-11", "gps": {"lat": "46.8047", "lon": "1.6957099"}}, {"link": "https://www.instagram.com/p/BRbUdvbgmvM", "place": {"id": "1016446945", "name": "Salle Beaudran", "slug": "salle-beaudran", "street_address": " Avenue D' Artagnan", " zip_code": " 32300", " city_name": " Mirande", " region_name": " ", " country_code": " FR"}, "timestamp": "2017-03-09", "gps": {"lat": "43.5143244", "lon": "0.4041473"}}, {"link": "https://www.instagram.com/p/BRbDDw2APZi", "place": {"id": "1029054756", "name": "Loubersan", "slug": "loubersan", "street_address": " ", " zip_code": " 32300", " city_name": " Loubersan", " region_name": " ", " country_code": " FR"}, "timestamp": "2017-03-09", "gps": {"lat": "43.4977778", "lon": "0.4997222"}}, {"link": "https://www.instagram.com/p/BRYUTezg-0S", "place": {"id": "216640524", "name": "Besan\u00e7on", "slug": "besancon-france", "street_address": " ", " zip_code": " ", " city_name": " Besan\u00e7on", " region_name": " ", " country_code": " FR"}, "timestamp": "2017-03-08", "gps": {"lat": "47.2380222", "lon": "6.0243622"}},